%time,field.header.seq,field.header.stamp,field.header.frame_id,field.wrench.force.x,field.wrench.force.y,field.wrench.force.z,field.wrench.torque.x,field.wrench.torque.y,field.wrench.torque.z
1506520940563769791,397594,1506520940563769791,,0.0624275369963,-0.0682745904762,0.87764959707,-0.0024409447619,0.00223793318681,-0.000286822783883
1506520940564757198,397595,1506520940564757198,,0.0648596454212,0.00482142417582,0.760123030037,-0.00324426842491,0.00124037164835,0.000602066227106
1506520940565789376,397596,1506520940565789376,,-0.0673901919414,0.0785714344322,0.761094259341,0.000998072161172,0.00289781992674,0.00475217333333
1506520940566779430,397597,1506520940566779430,,0.0969035369963,-0.0504501714286,0.759397298168,-0.00389558871795,0.000821736117216,0.000621587032967
1506520940567781903,397598,1506520940567781903,,0.0648607413919,0.00394614212454,0.81913876044,-0.0032678381685,0.00322643868132,0.000633772893773
1506520940568846076,397599,1506520940568846076,,0.126227378755,-0.0300421509158,0.818395841758,-0.00195811194139,-0.00050171985348,-0.00134525655678
1506520940569767630,397600,1506520940569767630,,0.096838625641,-0.0142909098901,0.819012225641,-0.00348373245421,0.00282897296703,-0.000387304322344
1506520940570777260,397601,1506520940570777260,,0.0899133860806,-0.0127538608059,0.937018927473,0.00158940630037,0.00393546534799,-0.000194967765568
1506520940571756921,397602,1506520940571756921,,0.0968375296703,-0.0134156278388,0.759996495238,-0.00346016271062,0.000842905934066,-0.000419010989011
1506520940572780305,397603,1506520940572780305,,0.095999759707,-0.0109963721612,0.876583167766,-0.00340303604396,-0.0011189996337,-0.000295145934066
1506520940573770449,397604,1506520940573770449,,0.0951619897436,-0.00857711648352,0.993169840293,-0.00334590937729,-0.00308090520147,-0.000171280879121
1506520940574779442,397605,1506520940574779442,,0.0648607413919,0.00394614212454,0.81913876044,-0.0032678381685,0.00322643868132,0.000633772893773
1506520940575782846,397606,1506520940575782846,,0.126227378755,-0.0300421509158,0.818395841758,-0.00195811194139,-0.00050171985348,-0.00134525655678
1506520940576759331,397607,1506520940576759331,,0.095999759707,-0.0109963721612,0.876583167766,-0.00340303604396,-0.0011189996337,-0.000295145934066
1506520940577780507,397608,1506520940577780507,,0.000904972893773,0.0404202461538,0.819391830037,-0.00283604959707,0.00402137010989,0.00267592732601
1506520940578782579,397609,1506520940578782579,,-0.000780380952381,0.00345225787546,0.701716111355,-0.00158708747253,0.00302887875458,0.00365578527473
1506520940579775705,397610,1506520940579775705,,0.0313102388278,-0.0522189684982,0.762372808791,-0.00230237677656,0.00459829868132,-0.00248623399267
1506520940580781233,397611,1506520940580781233,,-0.0638896615385,0.0801888879121,0.877215841758,-0.00232356461538,0.000868328937729,0.00481024014652
1506520940581778589,397612,1506520940581778589,,0.0605224410256,0.00474794432234,0.819603850549,0.000110925274725,0.00329402410256,0.000699571135531
1506520940582781414,397613,1506520940582781414,,0.00265414212454,0.0421042549451,0.818436890842,-0.00447329824176,0.00102055758242,0.00267325406593
1506520940583770169,397614,1506520940583770169,,0.0978171282051,-0.0480974710623,0.993060492308,-0.00552285018315,-0.000168847912088,0.000806192161172
1506520940584779108,397615,1506520940584779108,,0.12881650989,-0.0325279619048,0.818885690842,-0.00369962673993,0.00243150725275,-0.00140838153846
1506520940585781126,397616,1506520940585781126,,0.000904972893773,0.0404202461538,0.819391830037,-0.00283604959707,0.00402137010989,0.00267592732601
1506520940586778146,397617,1506520940586778146,,0.0898364688645,-0.0166505347985,0.527753330403,0.00318311084249,0.00490188791209,-0.000535144615385
1506520940587781040,397618,1506520940587781040,,0.0320439912088,0.0254777318681,0.876836237363,-0.00297124747253,-0.000324068205128,0.00174700849817
1506520940588780781,397619,1506520940588780781,,0.0890658021978,-0.0521411047619,0.702756536264,0.00278124175824,0.00490487956044,0.000661025128205
1506520940589769518,397620,1506520940589769518,,0.0925003252747,-0.0134891076923,0.819477315751,-0.000104969010989,0.00289655838828,-0.000321506080586
1506520940590780659,397621,1506520940590780659,,0.0666099106227,0.00563015091575,0.818183821245,-0.00490508681319,0.000225626153846,0.0006310996337
1506520940591754998,397622,1506520940591754998,,0.0649256527473,-0.0322131194139,0.759523832967,-0.00367969443223,0.0012192018315,0.00164266424908
1506520940592781071,397623,1506520940592781071,,0.0648596454212,0.00482142417582,0.760123030037,-0.00324426842491,0.00124037164835,0.000602066227106
1506520940593772445,397624,1506520940593772445,,0.103764961172,-0.0167032410256,0.760021254212,-0.00858044095238,0.00370854761905,-0.000547934212454
1506520940594778510,397625,1506520940594778510,,0.12881650989,-0.0325279619048,0.818885690842,-0.00369962673993,0.00243150725275,-0.00140838153846
1506520940595798522,397626,1506520940595798522,,0.0303825494505,-0.0121277128205,0.819359598535,-0.00176605472527,0.000670501684982,-0.00033805025641
1506520940596758737,397627,1506520940596758737,,0.0605213450549,0.00562322637363,0.760588120147,0.000134495018315,0.0013079570696,0.000667864468864
1506520940597778519,397628,1506520940597778519,,0.12438829011,0.00594584029304,0.759750898168,0.000158332087912,0.000533201245421,0.000681735384615
1506520940598780000,397629,1506520940598780000,,0.028722203663,-0.0506084395604,0.82089869011,-0.000584431721612,0.00365113860806,-0.00239140234432
1506520940599771614,397630,1506520940599771614,,0.0986548981685,-0.0505167267399,0.87647381978,-0.00557997684982,0.00179305765568,0.000682327106227
1506520940600780424,397631,1506520940600780424,,0.0648596454212,0.00482142417582,0.760123030037,-0.00324426842491,0.00124037164835,0.000602066227106
1506520940601755612,397632,1506520940601755612,,0.000904972893773,0.0404202461538,0.819391830037,-0.00283604959707,0.00402137010989,0.00267592732601
1506520940602786611,397633,1506520940602786611,,0.0606112644689,-0.0320487736264,0.82018800293,-0.0003447003663,0.00327384849817,-0.00135645421245
1506520940603783028,397634,1506520940603783028,,0.0960896791209,-0.0486683721612,0.936183050549,-0.00388223142857,0.000846891794872,-0.00231946461538
1506520940604793632,397635,1506520940604793632,,0.124478209524,-0.031726159707,0.819350780952,-0.000320863296703,0.00249909267399,-0.0013425832967
1506520940605783200,397636,1506520940605783200,,0.126228474725,-0.030917432967,0.877411572161,-0.00198168168498,0.00148434717949,-0.00131354989011
1506520940606759228,397637,1506520940606759228,,0.0924115018315,0.0233076102564,0.81889316337,0.000350656630037,0.00291673399267,0.0017345192674
1506520940607783539,397638,1506520940607783539,,0.0943165978022,-0.0497149245421,0.87693890989,-0.00220121340659,0.00186064307692,0.000748125347985
1506520940608786017,397639,1506520940608786017,,0.124543120879,-0.0678854212454,0.75973585348,-0.00073271956044,0.000491855824176,-0.000333691941392
1506520940609786234,397640,1506520940609786234,,0.092655156044,-0.0873203692308,0.819462271062,-0.000996020659341,0.00285521296703,-0.00133693340659
1506520940610785619,397641,1506520940610785619,,0.124477113553,-0.0308508776557,0.760335050549,-0.000297293553114,0.000513025641026,-0.00137428996337
1506520940611785113,397642,1506520940611785113,,0.126227378755,-0.0300421509158,0.818395841758,-0.00195811194139,-0.00050171985348,-0.00134525655678
1506520940612785532,397643,1506520940612785532,,0.0925880527473,-0.0494105435897,0.761045737729,-0.000537024908425,0.000890315750916,-0.00240923809524
1506520940613772004,397644,1506520940613772004,,0.0925663326007,-0.0505236512821,0.818878118681,-0.000540395018315,0.00287538857143,0.000719091941392
1506520940614783553,397645,1506520940614783553,,0.122793951648,-0.0695694300366,0.760690792674,0.000904529084249,0.00349266835165,-0.000331018681319
1506520940615787050,397646,1506520940615787050,,0.0951543677656,-0.0521341802198,0.760352237363,-0.00225834007326,0.00382254864469,0.00062426029304
1506520940616786812,397647,1506520940616786812,,0.0288759384615,-0.123564419048,0.761867915018,-0.00145191362637,0.00162372615385,-0.003438536337
1506520940617787399,397648,1506520940617787399,,0.0943165978022,-0.0497149245421,0.87693890989,-0.00220121340659,0.00186064307692,0.000748125347985
1506520940618792300,397649,1506520940618792300,,-0.00141659194139,-0.0683593787546,0.879670168498,-0.0024849814652,0.00301368322344,-0.0033973170696
1506520940619790859,397650,1506520940619790859,,0.0606772717949,-0.0690833172161,0.819588805861,-0.000780126373626,0.00325267868132,-0.000315856190476
1506520940620789754,397651,1506520940620789754,,0.0623604336996,-0.0303647648352,0.819233063736,-0.00198194901099,0.000273035970696,-0.00135912747253
1506520940621786894,397652,1506520940621786894,,-0.00325677655678,-0.0314961054945,0.762009494505,-0.000344967692308,0.00206253728938,-0.00140203179487
1506520940622788723,397653,1506520940622788723,,0.0625152644689,-0.104196026374,0.819218019048,-0.00287300065934,0.000231690549451,-0.00237455479853
1506520940623787342,397654,1506520940623787342,,0.0924104058608,0.0241828923077,0.759877432967,0.000374226373626,0.000930666959707,0.00170281260073
1506520940624789849,397655,1506520940624789849,,-0.0352563809524,-0.0143721611722,0.819968410256,-0.000132443516484,0.00444507582418,0.00274737545788
1506520940625787004,397656,1506520940625787004,,-0.0033445040293,0.00442533040293,0.820441072527,8.70882051282e-05,0.00406877992674,0.00068570021978
1506520940626788878,397657,1506520940626788878,,0.0943394139194,-0.0494770989011,0.878122259341,-0.00222141304029,0.00186163728938,-0.00234849802198
1506520940627790644,397658,1506520940627790644,,-0.0645585025641,-0.0336670739927,0.703137485714,-0.00206655018315,0.00378345897436,0.00158588901099
1506520940628792236,397659,1506520940628792236,,0.28648763663,0.0600990974359,0.697072383883,-0.000796382197802,-0.000427259047619,0.00680224241758
1506520940629791752,397660,1506520940629791752,,-0.000668741391941,-0.0331066344322,0.703483613187,-0.00206291274725,0.00300969736264,-0.00149686344322
1506520940630792717,397661,1506520940630792717,,0.317474016117,0.117237280586,0.872563296703,-8.76679120879e-05,-0.000759217875458,0.00695216424908
1506520940631792431,397662,1506520940631792431,,0.0286993875458,-0.0508462652015,0.819715340659,-0.000564232087912,0.0036501443956,0.000705221025641
1506520940632790636,397663,1506520940632790636,,-0.0992781567766,0.0591364864469,0.820820676923,0.000734771062271,0.0052611770696,0.00374893186813
1506520940633792564,397664,1506520940633792564,,0.0942494945055,-0.0118050989011,0.818522376557,-0.00174221765568,-0.000104254139194,-0.000324179340659
1506520940634789827,397665,1506520940634789827,,-0.0992792527473,0.0600117684982,0.76180494652,0.000758340805861,0.00327511003663,0.00371722520147
1506520940635791278,397666,1506520940635791278,,0.0622716102564,0.00643195311355,0.818648911355,-0.00152632336996,0.000293211575092,0.000696897875458
1506520940636791985,397667,1506520940636791985,,0.060587352381,-0.0314113172161,0.759988923077,-0.000300930989011,0.00128678725275,0.00170846249084
1506520940637795362,397668,1506520940637795362,,0.104601635165,-0.018247214652,0.584418851282,-0.00861399787546,0.00368438615385,-0.000703505934066
1506520940638797836,397669,1506520940638797836,,0.0978160322344,-0.047222189011,0.934044761905,-0.00549928043956,-0.00215491494505,0.000774485494505
1506520940639797358,397670,1506520940639797358,,0.0941606710623,0.0249916190476,0.817938224176,-0.00128659201465,-8.40785347985e-05,0.00173184600733
1506520940640796475,397671,1506520940640796475,,0.0459118564103,-0.0226661684982,0.527220041026,-0.0120972947985,0.00833952915751,-0.000875333479853
1506520940641756462,397672,1506520940641756462,,-0.141552237363,0.0497950798535,0.467899232234,-0.0145925487912,0.00864950117216,0.0061942229304
1506520940642795146,397673,1506520940642795146,,0.184741702564,0.0462196747253,0.992457808059,0.00238929677656,-0.00114437758242,0.00300203501832
1506520940643796229,397674,1506520940643796229,,0.0762054827839,-0.0787464908425,0.468433517949,-0.0110877967033,0.00893563912088,-0.000884846080586
1506520940644795667,397675,1506520940644795667,,0.0873891663004,-0.0464273113553,0.876914150916,0.00291906483516,-0.00100499860806,0.000877048571429
1506520940645794687,397676,1506520940645794687,,0.05718436337,-0.0271437069597,0.936284826374,0.0014539410989,-0.00162128417582,-0.00116946417582
1506520940646795464,397677,1506520940646795464,,0.0743881142857,-0.0416453919414,0.351956193407,-0.0089679825641,0.00798548739927,-0.00198618417582
1506520940647796551,397678,1506520940647796551,,0.165857728938,-0.0165518974359,0.640924161172,-0.00685201611722,0.00196147604396,0.00250182
1506520940648800412,397679,1506520940648800412,,0.0933380952381,-0.01590836337,0.702890643223,-0.000162095677656,0.00485846395604,-0.000445371135531
1506520940649799387,397680,1506520940649799387,,0.0615150417582,-0.0715025728938,0.703002133333,-0.000837253040293,0.00521458424908,-0.000439721245421
1506520940650797490,397681,1506520940650797490,,0.0649495648352,-0.0328505758242,0.819722912821,-0.00372346380952,0.00320626307692,-0.00142225245421
1506520940651758066,397682,1506520940651758066,,0.0933141831502,-0.0152709069597,0.64269156337,-0.000118326300366,0.00287140271062,0.00261954556777
1506520940652797722,397683,1506520940652797722,,0.0268820190476,-0.0137451663004,0.703238016117,0.00155558205128,0.00269999267399,-0.000396117069597
1506520940653797370,397684,1506520940653797370,,0.0621968849817,0.000784715018315,0.527414775092,2.02416849817e-05,0.00523176820513,0.000420134358974
1506520940654797816,397685,1506520940654797816,,0.0915878300366,-0.0167170901099,0.644829852015,0.00149872271062,0.00587320945055,-0.000474404542125
1506520940655798601,397686,1506520940655798601,,-0.00416817582418,-0.0355993699634,0.646377761172,0.00123515428571,0.00702525538462,-0.00152322358974
1506520940656797805,397687,1506520940656797805,,0.0666987340659,-0.031166567033,0.818767973626,-0.00536071245421,0.000205450549451,-0.00142492571429
1506520940657797447,397688,1506520940657797447,,0.0941606710623,0.0249916190476,0.817938224176,-0.00128659201465,-8.40785347985e-05,0.00173184600733
1506520940658804214,397689,1506520940658804214,,0.0976763956044,-0.0167101655678,0.702425553114,-0.00354085912088,0.0047908785348,-0.000511169377289
1506520940659804846,397690,1506520940659804846,,0.125300785348,0.00917382271062,0.934398361905,-0.0014453596337,-0.00244344981685,0.000834633846154
1506520940660799181,397691,1506520940660799181,,0.0943165978022,-0.0497149245421,0.87693890989,-0.00220121340659,0.00186064307692,0.000748125347985
1506520940661758113,397692,1506520940661758113,,0.104512811722,0.0185495032967,0.583834698901,-0.00815837223443,0.00370456175824,0.00135251941392
1506520940662799341,397693,1506520940662799341,,0.0899782974359,-0.0489131223443,0.877404,0.00117755003663,0.00192822849817,0.000813923589744
1506520940663799520,397694,1506520940663799520,,0.150254792674,-0.0125359619048,0.700845312821,0.0050022192674,0.00121707223443,0.00279404637363
1506520940664800797,397695,1506520940664800797,,0.05718436337,-0.0271437069597,0.936284826374,0.0014539410989,-0.00162128417582,-0.00116946417582
1506520940665798849,397696,1506520940665798849,,0.0942505904762,-0.0126803809524,0.87753810696,-0.00176578739927,0.00188181289377,-0.000292472673993
1506520940666801014,397697,1506520940666801014,,0.0226097260073,-0.0499779076923,0.703103909158,0.00449891948718,0.00274640827839,0.000710279194139
1506520940667801259,397698,1506520940667801259,,0.0545887062271,-0.0690902417582,0.761993104762,0.00425945545788,0.00433500959707,-0.000279091355311
1506520940668803514,397699,1506520940668803514,,0.0278616175824,-0.0484270095238,0.936302013187,-0.000507105421245,0.00168823882784,0.000829086080586
1506520940669803861,397700,1506520940669803861,,0.0598395018315,-0.0666640615385,0.936175478388,-0.00072299970696,0.00129077311355,-0.000191991135531
1506520940670801562,397701,1506520940670801562,,0.155440676923,0.0260494798535,0.934642613919,0.0004316203663,0.000180072600733,0.0018722552381
1506520940671756554,397702,1506520940671756554,,0.126026915751,0.0433134593407,0.816044187546,-0.00102666102564,-0.000462362857143,0.00586341750916
1506520940672800528,397703,1506520940672800528,,0.0623604336996,-0.0303647648352,0.819233063736,-0.00198194901099,0.000273035970696,-0.00135912747253
1506520940673757276,397704,1506520940673757276,,0.0605224410256,0.00474794432234,0.819603850549,0.000110925274725,0.00329402410256,0.000699571135531
1506520940674802581,397705,1506520940674802581,,0.0968158095238,-0.0145287355311,0.81782887619,-0.00346353282051,0.00282797875458,0.00270931904762
1506520940675803942,397706,1506520940675803942,,-0.00161815091575,0.00587151355311,0.818302783883,-0.00152996080586,0.00106697318681,0.00377965032967
1506520940676758409,397707,1506520940676758409,,0.0321339106227,-0.0121942681319,0.936436120147,-0.00345044285714,0.00164182322344,-0.00027731018315
1506520940677802050,397708,1506520940677802050,,0.0649495648352,-0.0328505758242,0.819722912821,-0.00372346380952,0.00320626307692,-0.00142225245421
1506520940678804938,397709,1506520940678804938,,0.0900671208791,-0.085709840293,0.877988152381,0.000721924395604,0.00190805289377,-0.00124210175824
1506520940679809404,397710,1506520940679809404,,0.0304724688645,-0.0497997128205,0.878959481319,-0.00224525010989,0.00263639311355,-0.00236236893773
1506520940680802860,397711,1506520940680802860,,-0.00409345054945,-0.0299521318681,0.937611897436,-0.000311410769231,0.00208669875458,-0.00124646007326
1506520940681758224,397712,1506520940681758224,,0.0295447794872,-0.00970845714286,0.935946271062,-0.00170892805861,-0.00129140388278,-0.000214185201465
1506520940682803143,397713,1506520940682803143,,0.0942505904762,-0.0126803809524,0.87753810696,-0.00176578739927,0.00188181289377,-0.000292472673993
1506520940683803924,397714,1506520940683803924,,0.0900011135531,-0.0486752967033,0.878587349451,0.00115735040293,0.00192922271062,-0.00228269978022
1506520940684803539,397715,1506520940684803539,,-0.00409345054945,-0.0299521318681,0.937611897436,-0.000311410769231,0.00208669875458,-0.00124646007326
1506520940685806056,397716,1506520940685806056,,0.0607660952381,-0.105880035165,0.820172958242,-0.00123575201465,0.00323250307692,-0.00237188153846
1506520940686801573,397717,1506520940686801573,,0.13221840293,-0.0359202901099,0.583574057143,-0.00543092908425,0.00335351164835,0.00143783846154
1506520940687802576,397718,1506520940687802576,,0.0631753875458,-0.0330218461538,0.701463041758,-0.00201887604396,0.00223394732601,0.00161363084249
1506520940688806955,397719,1506520940688806955,,0.126139651282,0.00587928498168,0.87682741978,-0.00152605604396,0.00150452278388,0.000742475457875
1506520940689811167,397720,1506520940689811167,,0.0942494945055,-0.0118050989011,0.818522376557,-0.00174221765568,-0.000104254139194,-0.000324179340659
1506520940690803155,397721,1506520940690803155,,0.0925663326007,-0.0505236512821,0.818878118681,-0.000540395018315,0.00287538857143,0.000719091941392
1506520940691758607,397722,1506520940691758607,,0.0942505904762,-0.0126803809524,0.87753810696,-0.00176578739927,0.00188181289377,-0.000292472673993
1506520940692796145,397723,1506520940692796145,,0.0942505904762,-0.0126803809524,0.87753810696,-0.00176578739927,0.00188181289377,-0.000292472673993
1506520940693802462,397724,1506520940693802462,,0.0261341684982,-0.0489979106227,0.879424571429,0.00113351333333,0.0027039785348,-0.00229657069597
1506520940694790398,397725,1506520940694790398,,-0.0397506080586,0.0611361846154,0.761432814652,0.00416094131868,0.0025679396337,0.00379689435897
1506520940695800261,397726,1506520940695800261,,0.0942505904762,-0.0126803809524,0.87753810696,-0.00176578739927,0.00188181289377,-0.000292472673993
1506520940696804613,397727,1506520940696804613,,0.0961556864469,-0.0857029157509,0.93558385348,-0.0043176574359,0.000825721978022,-0.00127886659341
1506520940697778068,397728,1506520940697778068,,0.09256523663,-0.0496483692308,0.759862388278,-0.000516825274725,0.000889321538462,0.000687385274725
1506520940698791888,397729,1506520940698791888,,-0.0648021567766,0.0769609054945,0.702568378022,-0.000719872893773,0.00384498,0.00465734168498
1506520940699857768,397730,1506520940699857768,,0.124543120879,-0.0678854212454,0.75973585348,-0.00073271956044,0.000491855824176,-0.000333691941392
1506520940700803007,397731,1506520940700803007,,0.0943198857143,-0.052340770696,1.0539861011,-0.00227192263736,0.00781884417582,0.000843245347985
1506520940701758333,397732,1506520940701758333,,0.057020814652,0.00400577289377,0.644466537729,0.00345613179487,0.00333744805861,0.000609797655678
1506520940702792559,397733,1506520940702792559,,0.0552716454212,0.00232176410256,0.645421476923,0.00509338043956,0.00633826058608,0.000612470915751
1506520940703800061,397734,1506520940703800061,,0.0596846710623,0.0071672,0.936190523077,0.000168051941392,0.0013321185348,0.000823436190476
1506520940704787418,397735,1506520940704787418,,0.120977679121,-0.0333436131868,0.703229198535,0.00300077347985,0.004528583663,-0.00140065010989
1506520940705785395,397736,1506520940705785395,,0.125380890842,-0.0703046769231,0.643149180952,-0.000789846227106,0.00245376139194,-0.000457556996337
1506520940706791958,397737,1506520940706791958,,0.0561743267399,-0.0362567531136,0.469219876923,0.00462439750916,0.00629292930403,0.00149749721612
1506520940707771440,397738,1506520940707771440,,0.0286333802198,-0.0138117216117,0.820314537729,-0.000128806080586,0.00367131421245,-0.000335376996337
1506520940708788470,397739,1506520940708788470,,0.0855641758242,-0.0528832761905,0.527619223443,0.00612644827839,0.00494830351648,0.000571251648352
1506520940709763137,397740,1506520940709763137,,0.0286333802198,-0.0138117216117,0.820314537729,-0.000128806080586,0.00367131421245,-0.000335376996337
1506520940710785045,397741,1506520940710785045,,0.0224461772894,-0.0188284278388,0.411285620513,0.00650111018315,0.00770514051282,0.00248954102564
1506520940711757659,397742,1506520940711757659,,0.0881761230769,-0.0551312615385,0.529292421978,0.00436473384615,0.00788252483516,-0.0025884967033
1506520940712786843,397743,1506520940712786843,,0.0854992644689,-0.016724014652,0.587234150916,0.00653830454212,0.0069555403663,-0.00043763970696
1506520940713783662,397744,1506520940713783662,,0.100339156044,-0.0126734564103,0.935133808059,-0.00680536923077,0.000799481978022,-0.000329237509158
1506520940714785730,397745,1506520940714785730,,0.0701104410256,0.0072476043956,0.934305403663,-0.00822672358974,-0.00180386483516,0.000689166446886
1506520940715790977,397746,1506520940715790977,,0.0968375296703,-0.0134156278388,0.759996495238,-0.00346016271062,0.000842905934066,-0.000419010989011
1506520940716783665,397747,1506520940716783665,,0.096838625641,-0.0142909098901,0.819012225641,-0.00348373245421,0.00282897296703,-0.000387304322344
1506520940717785815,397748,1506520940717785815,,-0.0380739721612,0.0554223912088,0.5872752,0.00402311824176,0.0084778178022,0.00358087091575
1506520940718791546,397749,1506520940718791546,,0.120064087912,-0.0356963135531,0.469566004396,0.00462803494505,0.00551916769231,-0.0015852552381
1506520940719788653,397750,1506520940719788653,,-0.0760515985348,0.0368558007326,0.530390186081,0.00882296871795,0.00993743882784,0.00258268761905
1506520940720755346,397751,1506520940720755346,,-0.0950297758242,0.0960066842491,0.760755704029,-0.00216479699634,0.00322770021978,0.00570745230769
1506520940721781652,397752,1506520940721781652,,0.0854992644689,-0.016724014652,0.587234150916,0.00653830454212,0.0069555403663,-0.00043763970696
1506520940722788020,397753,1506520940722788020,,0.0942494945055,-0.0118050989011,0.818522376557,-0.00174221765568,-0.000104254139194,-0.000324179340659
1506520940723780753,397754,1506520940723780753,,-0.00343332747253,0.0412220483516,0.819856920147,0.000542713846154,0.00408895553114,0.00274172556777
1506520940724779033,397755,1506520940724779033,,0.0596099457875,0.00151996190476,0.644956386813,0.00171461699634,0.00627067516484,0.000546672673993
1506520940725783433,397756,1506520940725783433,,0.0950872644689,-0.0142243545788,0.701935704029,-0.00179934432234,0.00185765142857,-0.000448044395604
1506520940726783129,397757,1506520940726783129,,0.0951532717949,-0.0512588981685,0.70133650696,-0.00223477032967,0.00183648161172,0.000592553626374
1506520940727777092,397758,1506520940727777092,,0.0561830446886,0.00642502857143,0.761053210256,0.00351325846154,0.00137554249084,0.000733662710623
1506520940728782884,397759,1506520940728782884,,0.0631104761905,0.00313741538462,0.761077969231,-0.00160701978022,0.00424118417582,0.000604739487179
1506520940729757515,397760,1506520940729757515,,-0.225351701099,0.096971985348,0.820956029304,-0.000494526080586,0.00383005179487,0.00577454212454
1506520940730781166,397761,1506520940730781166,,0.0346320263736,0.0238672029304,0.818310356044,-0.00468919252747,0.000623091868132,0.00165217684982
1506520940731782125,397762,1506520940731782125,,0.126227378755,-0.0300421509158,0.818395841758,-0.00195811194139,-0.00050171985348,-0.00134525655678
1506520940732811318,397763,1506520940732811318,,0.121956181685,-0.067150174359,0.877277465201,0.000961655750916,0.00153076278388,-0.000207153626374
1506520940733749471,397764,1506520940733749471,,0.0899111941392,-0.0110032967033,0.818987466667,0.00163654578755,-3.66687179487e-05,-0.000258381098901
1506520940734779590,397765,1506520940734779590,,0.0648607413919,0.00394614212454,0.81913876044,-0.0032678381685,0.00322643868132,0.000633772893773
1506520940735756288,397766,1506520940735756288,,6.72029304029e-05,0.0428395018315,0.935978502564,-0.0027789229304,0.00205946454212,0.00279979238095
1506520940736780080,397767,1506520940736780080,,0.128881421245,-0.0686872234432,0.75927076337,-0.00411148300366,0.00042427040293,-0.00039949018315
1506520940737777670,397768,1506520940737777670,,0.0613591150183,0.00320397069597,0.644001447619,7.73683516484e-05,0.00326986263736,0.000543999413919
1506520940738781935,397769,1506520940738781935,,0.0613591150183,0.00320397069597,0.644001447619,7.73683516484e-05,0.00326986263736,0.000543999413919
1506520940739756998,397770,1506520940739756998,,0.000904972893773,0.0404202461538,0.819391830037,-0.00283604959707,0.00402137010989,0.00267592732601
1506520940740779338,397771,1506520940740779338,,0.096838625641,-0.0142909098901,0.819012225641,-0.00348373245421,0.00282897296703,-0.000387304322344
1506520940741778956,397772,1506520940741778956,,0.160794394139,-0.0507650139194,0.818759156044,-0.00391552102564,0.00203404153846,-0.00242945875458
1506520940742780239,397773,1506520940742780239,,0.190184243223,-0.0673915369963,0.877158502564,-0.00241347025641,0.000689415750916,-0.00335570432234
1506520940743777406,397774,1506520940743777406,,0.0951543677656,-0.0521341802198,0.760352237363,-0.00225834007326,0.00382254864469,0.00062426029304
1506520940744780219,397775,1506520940744780219,,0.192771182418,-0.0681267838828,0.759616890842,-0.00410784556777,-0.000349491208791,-0.00348224263736
1506520940745756346,397776,1506520940745756346,,0.0735503443223,-0.0392261362637,0.468542865934,-0.00891085589744,0.0060235818315,-0.00186231912088
1506520940746780715,397777,1506520940746780715,,0.125380890842,-0.0703046769231,0.643149180952,-0.000789846227106,0.00245376139194,-0.000457556996337
1506520940747778578,397778,1506520940747778578,,0.188498889377,-0.104359525275,0.759482783883,-0.00116450813187,-0.000303075604396,-0.00237584637363
1506520940748781151,397779,1506520940748781151,,0.15827127033,-0.0853137465201,0.81767010989,-0.00260943223443,-0.000920355384615,-0.00132573575092
1506520940749756561,397780,1506520940749756561,,0.092499229304,-0.012613825641,0.760461585348,-8.13992673993e-05,0.000910491355311,-0.000353212747253
1506520940750780983,397781,1506520940750780983,,0.124477113553,-0.0308508776557,0.760335050549,-0.000297293553114,0.000513025641026,-0.00137428996337
1506520940751781901,397782,1506520940751781901,,0.130565679121,-0.0308439531136,0.817930751648,-0.00533687538462,-0.000569305274725,-0.00141105479853
1506520940752756363,397783,1506520940752756363,,0.0889986989011,-0.0142312791209,0.64434000293,0.00324023750916,0.00293998234432,-0.00041127956044
1506520940753747212,397784,1506520940753747212,,0.0598384058608,-0.0657887794872,0.877159747985,-0.00069942996337,-0.000695293919414,-0.000223697802198
1506520940754779255,397785,1506520940754779255,,0.096904632967,-0.0513254534799,0.818413028571,-0.00391915846154,0.00280780315018,0.000653293699634
1506520940755778612,397786,1506520940755778612,,0.0649256527473,-0.0322131194139,0.759523832967,-0.00367969443223,0.0012192018315,0.00164266424908
1506520940756779877,397787,1506520940756779877,,0.0968375296703,-0.0134156278388,0.759996495238,-0.00346016271062,0.000842905934066,-0.000419010989011
1506520940757778504,397788,1506520940757778504,,-0.000845292307692,0.0396115194139,0.761331038828,-0.00117523120879,0.0050361156044,0.00264689391941
1506520940758779016,397789,1506520940758779016,,0.0276969728938,-0.016402247619,0.585467994139,0.00151865501832,0.0046609040293,0.00257664124542
1506520940759756851,397790,1506520940759756851,,0.0631104761905,0.00313741538462,0.761077969231,-0.00160701978022,0.00424118417582,0.000604739487179
1506520940760781360,397791,1506520940760781360,,-0.00168415824176,0.0429060571429,0.818901980952,-0.00109453479853,0.00108814300366,0.00273905230769
1506520940761789081,397792,1506520940761789081,,0.156343358242,-0.0125290373626,0.758441013919,-3.73625641026e-05,0.000134741318681,0.00275728153846
1506520940762781601,397793,1506520940762781601,,0.126227378755,-0.0300421509158,0.818395841758,-0.00195811194139,-0.00050171985348,-0.00134525655678
1506520940763747358,397794,1506520940763747358,,0.053749840293,-0.0657957040293,0.819564046886,0.00434015186813,0.000387036996337,-0.000186932967033
1506520940764778725,397795,1506520940764778725,,0.130565679121,-0.0308439531136,0.817930751648,-0.00533687538462,-0.000569305274725,-0.00141105479853
1506520940765780896,397796,1506520940765780896,,-0.0654850959707,0.0055488996337,0.819140005861,-0.00155379787546,0.00184172901099,0.00376577941392
1506520940766759103,397797,1506520940766759103,,0.0303597333333,-0.0123655384615,0.818176249084,-0.00174585509158,0.000669507472527,0.00275857311355
1506520940767781176,397798,1506520940767781176,,-0.0336620424908,0.0611431091575,0.819028515751,-0.000878640512821,0.00148560871795,0.00376012952381
1506520940768784025,397799,1506520940768784025,,0.0969035369963,-0.0504501714286,0.759397298168,-0.00389558871795,0.000821736117216,0.000621587032967
1506520940769766303,397800,1506520940769766303,,0.0286322842491,-0.0129364395604,0.761298807326,-0.000105236336996,0.00168524717949,-0.000367083663004
1506520940770776001,397801,1506520940770776001,,0.0943144058608,-0.0479643604396,0.758907449084,-0.00215407391941,-0.00211149098901,0.000684712014652
1506520940771758384,397802,1506520940771758384,,0.0623604336996,-0.0303647648352,0.819233063736,-0.00198194901099,0.000273035970696,-0.00135912747253
1506520940772778531,397803,1506520940772778531,,0.16254356337,-0.0490810051282,0.81780421685,-0.00555276967033,-0.000966770989011,-0.00243213201465
1506520940773747978,397804,1506520940773747978,,0.0587710798535,0.0048144996337,0.702527328938,0.00179531340659,0.0023227025641,0.000638831062271
1506520940774776420,397805,1506520940774776420,,0.0658522461538,-0.0714290930403,0.643521312821,-0.00419244673993,0.00316093179487,-0.000537226153846
1506520940775780010,397806,1506520940775780010,,0.0648596454212,0.00482142417582,0.760123030037,-0.00324426842491,0.00124037164835,0.000602066227106
1506520940776777228,397807,1506520940776777228,,0.0650144761905,-0.0690098373626,0.760107985348,-0.00413532007326,0.00119902622711,-0.000413361098901
1506520940777775334,397808,1506520940777775334,,0.130631686447,-0.0678784967033,0.817331554579,-0.00577230139194,-0.000590475091575,-0.000370456776557
1506520940778807232,397809,1506520940778807232,,0.126294482051,-0.0679519765568,0.876812375092,-0.00241710769231,0.00146317736264,-0.000272951868132
1506520940779754488,397810,1506520940779754488,,0.128881421245,-0.0686872234432,0.75927076337,-0.00411148300366,0.00042427040293,-0.00039949018315
1506520940780778841,397811,1506520940780778841,,0.129727909158,-0.0284246974359,0.934517424176,-0.00527974871795,-0.00253121084249,-0.00128718974359
1506520940781757027,397812,1506520940781757027,,0.0951532717949,-0.0512588981685,0.70133650696,-0.00223477032967,0.00183648161172,0.000592553626374
1506520940782781164,397813,1506520940782781164,,0.0944043252747,-0.0856363604396,0.818507331868,-0.00263326930403,-0.00014559956044,-0.00133960666667
1506520940783778106,397814,1506520940783778106,,0.222161031502,-0.0847533069597,0.818016237363,-0.00260579479853,-0.00169411699634,-0.00440848820513
1506520940784777082,397815,1506520940784777082,,0.0995013860806,-0.0102542007326,1.05172048059,-0.0067482425641,-0.00116242358974,-0.000205372454212
1506520940785777327,397816,1506520940785777327,,0.0675895091575,-0.0290516923077,1.05124781832,-0.00696777428571,-0.000786127692308,0.00185630278388
1506520940786776884,397817,1506520940786776884,,0.0881620249084,-0.0126873054945,0.819942405861,0.00327379443223,0.00296414380952,-0.000255707838828
1506520940787782758,397818,1506520940787782758,,0.224750162637,-0.0872391179487,0.818506086447,-0.00434730959707,0.00123911010989,-0.00447161318681
1506520940788805191,397819,1506520940788805191,,0.0968375296703,-0.0134156278388,0.759996495238,-0.00346016271062,0.000842905934066,-0.000419010989011
1506520940789756772,397820,1506520940789756772,,0.134066209524,-0.0292264996337,0.934052334066,-0.00865851216117,-0.00259879626374,-0.00135298798535
1506520940790778878,397821,1506520940790778878,,0.0649256527473,-0.0322131194139,0.759523832967,-0.00367969443223,0.0012192018315,0.00164266424908
1506520940791757019,397822,1506520940791757019,,0.131545277656,-0.065525796337,1.05099474872,-0.00739956285714,-0.00158105912088,-0.000185851648352
1506520940792779146,397823,1506520940792779146,,0.0381336527473,0.024609374359,0.993447668864,-0.00803439904762,0.000579667912088,0.00174195032967
1506520940793773844,397824,1506520940793773844,,0.0553452747253,0.00884428424908,0.877639882784,0.00357038512821,-0.000586363076923,0.000857527765568
1506520940794777071,397825,1506520940794777071,,0.0950872644689,-0.0142243545788,0.701935704029,-0.00179934432234,0.00185765142857,-0.000448044395604
1506520940795774772,397826,1506520940795774772,,0.119302139194,-0.0285051018315,0.93640254359,0.00311502681319,0.000604772527473,-0.00115292
1506520940796777874,397827,1506520940796777874,,0.130631686447,-0.0678784967033,0.817331554579,-0.00577230139194,-0.000590475091575,-0.000370456776557
1506520940797774020,397828,1506520940797774020,,0.0873902622711,-0.0473025934066,0.935929881319,0.00289549509158,0.000981068424908,0.000908755238095
1506520940798804658,397829,1506520940798804658,,0.128815413919,-0.0316526798535,0.75986996044,-0.00367605699634,0.00044544021978,-0.00144008820513
1506520940799754470,397830,1506520940799754470,,0.0578596805861,0.000711235164835,0.586895595604,0.00337543538462,0.00728542065934,0.000517639267399
1506520940800781448,397831,1506520940800781448,,0.0631753875458,-0.0330218461538,0.701463041758,-0.00201887604396,0.00223394732601,0.00161363084249
1506520940801757198,397832,1506520940801757198,,0.058822989011,0.0102239120879,0.992578115751,0.000268947985348,-0.00261684827839,0.00401221794872
1506520940802778902,397833,1506520940802778902,,0.0872397157509,-0.0577217875458,0.294445878388,0.00601219494506,0.00887211465201,0.000323521538462
1506520940803776846,397834,1506520940803776846,,0.0501085772894,-0.0360258520147,0.412807525275,0.00964377970696,0.00737625443223,-0.00156236131868
1506520940804779029,397835,1506520940804779029,,0.125381986813,-0.0711799589744,0.702164911355,-0.000813415970696,0.00443982842491,-0.00042585032967
1506520940805775668,397836,1506520940805775668,,0.0968375296703,-0.0134156278388,0.759996495238,-0.00346016271062,0.000842905934066,-0.000419010989011
1506520940806779414,397837,1506520940806779414,,0.118314918681,-0.0373803223443,0.47052094359,0.00626528358974,0.00851998021978,-0.00158258197802
1506520940807777025,397838,1506520940807777025,,0.0933369992674,-0.0150330813187,0.643874912821,-0.000138525934066,0.00287239692308,-0.000477077802198
1506520940808781146,397839,1506520940808781146,,0.0881533069597,-0.0553690871795,0.528109072527,0.00438493347985,0.00788153062271,0.000508126666667
1506520940809777338,397840,1506520940809777338,,0.0276969728938,-0.016402247619,0.585467994139,0.00151865501832,0.0046609040293,0.00257664124542
1506520940810779350,397841,1506520940810779350,,0.0908290695971,-0.0929010520147,0.411151613187,0.00223493252747,0.00682244805861,-0.00167443699634
1506520940811756864,397842,1506520940811756864,,0.155453679121,-0.0155191941392,0.584976899634,0.00154612952381,0.00311238659341,-0.00049224029304
1506520940812778238,397843,1506520940812778238,,-0.00609608791209,0.0371853391941,0.587148665201,0.00380722395604,0.00808035208791,0.00255979369963
1506520940813778399,397844,1506520940813778399,,-0.00259555750916,0.038802792674,0.703270247619,0.000485587179487,0.0060508610989,0.00261786051282
1506520940814776355,397845,1506520940814776355,,0.11236683663,-0.0239540835165,0.467856937729,-0.0137914027839,0.00851193340659,-0.000956294212454
1506520940815775529,397846,1506520940815775529,,0.114183109158,-0.0601799003663,0.525318531868,-0.0158876471795,0.00747601809524,0.000113337216117
1506520940816777367,397847,1506520940816777367,,0.0986548981685,-0.0505167267399,0.87647381978,-0.00557997684982,0.00179305765568,0.000682327106227
1506520940817776733,397848,1506520940817776733,,-0.00343442344322,0.0420973304029,0.760841189744,0.000566283589744,0.00210288849817,0.0027100189011
1506520940818777578,397849,1506520940818777578,,0.083131818315,-0.081158821978,0.40944254652,-0.0161845052015,0.00981521377289,-0.0010454759707
1506520940819778051,397850,1506520940819778051,,0.0648596454212,0.00482142417582,0.760123030037,-0.00324426842491,0.00124037164835,0.000602066227106
1506520940820777573,397851,1506520940820777573,,0.0822280410256,-0.0417050227106,0.526628416117,-0.0156919525275,0.00787447802198,-0.00196220893773
1506520940821753871,397852,1506520940821753871,,0.096904632967,-0.0513254534799,0.818413028571,-0.00391915846154,0.00280780315018,0.000653293699634
1506520940822778795,397853,1506520940822778795,,0.0328828571429,0.0221831941392,0.819265295238,-0.00305194388278,0.0036239043956,0.00165485010989
1506520940823776979,397854,1506520940823776979,,0.0744411194139,-0.0371112615385,0.701022710623,-0.0105179177289,0.00503200358974,0.00141890937729
1506520940824781724,397855,1506520940824781724,,0.0977511208791,-0.0110629274725,0.993659689377,-0.00508742417582,-0.000147678095238,-0.000234405860806
1506520940825776914,397856,1506520940825776914,,0.065839243956,-0.0298604190476,0.993187027106,-0.00530695589744,0.000228617802198,0.00182726937729
1506520940826778145,397857,1506520940826778145,,0.130565679121,-0.0308439531136,0.817930751648,-0.00533687538462,-0.000569305274725,-0.00141105479853
1506520940827775538,397858,1506520940827775538,,0.128043651282,-0.0662679677656,0.875857435897,-0.004054356337,-0.00153763516484,-0.000275625128205
1506520940828779889,397859,1506520940828779889,,0.0986538021978,-0.0496414446886,0.817458089377,-0.00555640710623,-0.000193009377289,0.00065062043956
1506520940829758513,397860,1506520940829758513,,0.0925663326007,-0.0505236512821,0.818878118681,-0.000540395018315,0.00287538857143,0.000719091941392
1506520940830780553,397861,1506520940830780553,,-0.035413403663,0.0612096644689,0.701951994139,0.000805747619048,0.000514287179487,0.00369938945055
1506520940831778264,397862,1506520940831778264,,0.0666998300366,-0.0320418490842,0.877783704029,-0.0053842821978,0.00219151758242,-0.00139321904762
1506520940832780422,397863,1506520940832780422,,-0.0033445040293,0.00442533040293,0.820441072527,8.70882051282e-05,0.00406877992674,0.00068570021978
1506520940833745834,397864,1506520940833745834,,0.0587721758242,0.00393921758242,0.761543059341,0.001771743663,0.00430876959707,0.000670537728938
1506520940834778896,397865,1506520940834778896,,0.127978739927,-0.0301087062271,0.93547236337,-0.00364250007326,0.000469601684982,-0.00128451648352
1506520940835780317,397866,1506520940835780317,,-0.00168306227106,0.0420307750916,0.877917711355,-0.00111810454212,0.00307421003663,0.00277075897436
1506520940836758791,397867,1506520940836758791,,0.0951543677656,-0.0521341802198,0.760352237363,-0.00225834007326,0.00382254864469,0.00062426029304
1506520940837777951,397868,1506520940837777951,,0.0251988571429,-0.0524637186813,0.703593758242,0.00275740468864,0.00567963538462,0.000647154212454
1506520940838780782,397869,1506520940838780782,,0.124402388278,-0.0364981157509,0.469100914286,0.00124927150183,0.00545158227106,-0.00165105347985
1506520940839763189,397870,1506520940839763189,,0.0606772717949,-0.0690833172161,0.819588805861,-0.000780126373626,0.00325267868132,-0.000315856190476
1506520940840781362,397871,1506520940840781362,,-0.0327582652015,0.0216893098901,0.701842646154,-0.00137119318681,0.00342634446886,0.00467686249084
1506520940841755729,397872,1506520940841755729,,0.0924256,-0.0191363457875,0.528243179487,0.00144159604396,0.00783511501831,-0.00059826959707
1506520940842779626,397873,1506520940842779626,,0.0994266608059,-0.0159014388278,0.760486344322,-0.00520167750916,0.00377613304029,-0.000482135970696
1506520940843745851,397874,1506520940843745851,,0.0951630857143,-0.0094523985348,1.0521855707,-0.00336947912088,-0.0010948381685,-0.000139574212454
1506520940844776177,397875,1506520940844776177,,0.0907489641026,-0.013422552381,0.702400794139,0.00157941912088,0.00192523684982,-0.000382246153846
1506520940845777334,397876,1506520940845777334,,0.0916527413919,-0.0528763516484,0.585214924542,0.00108686644689,0.00386597260073,0.000534486813187
1506520940846777852,397877,1506520940846777852,,0.0890647062271,-0.0512658227106,0.643740805861,0.00280481150183,0.00291881252747,0.000629318461538
1506520940847777134,397878,1506520940847777134,,0.0622716102564,0.00643195311355,0.818648911355,-0.00152632336996,0.000293211575092,0.000696897875458
1506520940848781105,397879,1506520940848781105,,0.0588381831502,-0.0330953260073,0.760943862271,0.00133631765568,0.00428759978022,0.00171113575092
1506520940849776349,397880,1506520940849776349,,0.0589270065934,-0.069892043956,0.761528014652,0.000880692014652,0.00426742417582,-0.00034488959707
1506520940850778016,397881,1506520940850778016,,0.0908149714286,-0.0504570959707,0.70180159707,0.00114399311355,0.00190406703297,0.000658351868132
1506520940851756910,397882,1506520940851756910,,0.0916614593407,-0.0101945699634,0.877048257875,-2.42726007326e-05,-0.00105141421245,-0.000229347692308
1506520940852777945,397883,1506520940852777945,,0.0606112644689,-0.0320487736264,0.82018800293,-0.0003447003663,0.00327384849817,-0.00135645421245
1506520940853775721,397884,1506520940853775721,,0.0942494945055,-0.0118050989011,0.818522376557,-0.00174221765568,-0.000104254139194,-0.000324179340659
1506520940854777238,397885,1506520940854777238,,0.0623615296703,-0.0312400468864,0.878248794139,-0.00200551875458,0.00225910300366,-0.00132742080586
1506520940855776217,397886,1506520940855776217,,0.0977500249084,-0.0101876454212,0.934643958974,-0.00506385443223,-0.00213374512821,-0.000266112527473
1506520940856777011,397887,1506520940856777011,,0.0978160322344,-0.047222189011,0.934044761905,-0.00549928043956,-0.00215491494505,0.000774485494505
1506520940857775981,397888,1506520940857775981,,0.126293386081,-0.0670766945055,0.817796644689,-0.00239353794872,-0.00052288967033,-0.000304658534799
1506520940858780183,397889,1506520940858780183,,0.121890174359,-0.0301156307692,0.877876662271,0.00139708175824,0.00155193260073,-0.00124775164835
1506520940859755657,397890,1506520940859755657,,0.0606101684982,-0.0311734915751,0.761172272527,-0.000321130622711,0.0012877814652,-0.00138816087912
1506520940860784908,397891,1506520940860784908,,0.0942494945055,-0.0118050989011,0.818522376557,-0.00174221765568,-0.000104254139194,-0.000324179340659
1506520940861755279,397892,1506520940861755279,,0.0649495648352,-0.0328505758242,0.819722912821,-0.00372346380952,0.00320626307692,-0.00142225245421
1506520940862779741,397893,1506520940862779741,,0.0719267135531,-0.0289782124542,0.991766997802,-0.0103229679853,-0.00283978014652,0.00175879787546
1506520940863753096,397894,1506520940863753096,,0.0536748659341,-0.0266224732601,0.292626666667,-0.0172275602198,0.00919494234432,-0.00119153509158
1506520940864781554,397895,1506520940864781554,,0.192771182418,-0.0681267838828,0.759616890842,-0.00410784556777,-0.000349491208791,-0.00348224263736
1506520940865782051,397896,1506520940865782051,,0.0943155018315,-0.0488396424908,0.817923179487,-0.002177643663,-0.000125423956044,0.000716418681319
1506520940866757881,397897,1506520940866757881,,0.102088325275,-0.010989447619,0.934178868864,-0.00844261787546,-0.00220133054945,-0.000331910769231
1506520940867775275,397898,1506520940867775275,,0.102155428571,-0.0488992732601,0.992595402198,-0.00890161362637,-0.000236433333333,0.000740393919414
1506520940868781981,397899,1506520940868781981,,0.0979048556777,-0.0840189069597,0.934628914286,-0.00595490608059,-0.00217509054945,-0.00128153985348
1506520940869765942,397900,1506520940869765942,,0.0606112644689,-0.0320487736264,0.82018800293,-0.0003447003663,0.00327384849817,-0.00135645421245
1506520940870779430,397901,1506520940870779430,,0.0985877948718,-0.0126069010989,0.818057286447,-0.0051209810989,-0.00017183956044,-0.000389977582418
1506520940871757243,397902,1506520940871757243,,0.0598384058608,-0.0657887794872,0.877159747985,-0.00069942996337,-0.000695293919414,-0.000223697802198
1506520940872779178,397903,1506520940872779178,,0.128881421245,-0.0686872234432,0.75927076337,-0.00411148300366,0.00042427040293,-0.00039949018315
1506520940873755879,397904,1506520940873755879,,0.0555001054945,-0.0649869772894,0.877624838095,0.00267933347985,-0.000627708498168,-0.00015789956044
1506520940874778075,397905,1506520940874778075,,0.00272014945055,0.00506971135531,0.817837693773,-0.00490872424908,0.000999387765568,0.00371385208791
1506520940875775905,397906,1506520940875775905,,-0.0647133333333,0.0401641875458,0.703152530403,-0.0011754985348,0.0038248043956,0.002601316337
1506520940876777539,397907,1506520940876777539,,0.105506508425,-0.0585762959707,0.526248712088,-0.00913012029304,0.00761118893773,0.000244933699634
1506520940877775408,397908,1506520940877775408,,-0.00336732014652,0.0041875047619,0.819257723077,0.000107287838828,0.00406778571429,0.00378232358974
1506520940878781152,397909,1506520940878781152,,0.127132252015,-0.0703712322344,0.760225702564,-0.00247423435897,0.0034250829304,-0.000396816923077
1506520940879776693,397910,1506520940879776693,,0.0518588424908,-0.0352171252747,0.470868316484,0.00798296131868,0.00636150893773,-0.00153332791209
1506520940880781315,397911,1506520940880781315,,0.0544468776557,-0.0368276542125,0.412342435165,0.00626501626374,0.00730866901099,-0.00162815956044
1506520940881760695,397912,1506520940881760695,,0.0657645186813,-0.0355076571429,0.701952890842,-0.00376039084249,0.00516717443223,0.00155050586081
1506520940882774449,397913,1506520940882774449,,0.110616571429,-0.0247628102564,0.40979614652,-0.0121305843956,0.0095266789011,-0.000985327619048
1506520940883778417,397914,1506520940883778417,,0.0812927296703,-0.0451708307692,0.35079760293,-0.0140680611722,0.0108501348718,0.000981515970696
1506520940884775737,397915,1506520940884775737,,0.0916538373626,-0.0537516336996,0.644230654945,0.0010632967033,0.0058520396337,0.000566193479853
1506520940885777743,397916,1506520940885777743,,0.123630625641,-0.071113403663,0.585088389744,0.000870972161172,0.00346850688645,-0.00048659040293
1506520940886778309,397917,1506520940886778309,,0.0969035369963,-0.0504501714286,0.759397298168,-0.00389558871795,0.000821736117216,0.000621587032967
1506520940887775695,397918,1506520940887775695,,0.0968375296703,-0.0134156278388,0.759996495238,-0.00346016271062,0.000842905934066,-0.000419010989011
1506520940888782888,397919,1506520940888782888,,0.096904632967,-0.0513254534799,0.818413028571,-0.00391915846154,0.00280780315018,0.000653293699634
1506520940889779137,397920,1506520940889779137,,0.0311314959707,0.0222497494505,0.702188773626,-0.00136755575092,0.00265258285714,0.00159411003663
1506520940890776973,397921,1506520940890776973,,0.0943155018315,-0.0488396424908,0.817923179487,-0.002177643663,-0.000125423956044,0.000716418681319
1506520940891762875,397922,1506520940891762875,,0.0994926681319,-0.0529359824176,0.759887147253,-0.00563710351648,0.00375496322344,0.000558462051282
1506520940892775288,397923,1506520940892775288,,0.0969035369963,-0.0504501714286,0.759397298168,-0.00389558871795,0.000821736117216,0.000621587032967
1506520940893777591,397924,1506520940893777591,,0.0854981684982,-0.0158487326007,0.528218420513,0.00656187428571,0.00496947333333,-0.000469346373626
1506520940894776222,397925,1506520940894776222,,0.158205263004,-0.0482792029304,0.81826930696,-0.00217400622711,-0.000899185567766,-0.00236633377289
1506520940895775198,397926,1506520940895775198,,0.0873155369963,-0.0529498315018,0.644695745055,0.00444206014652,0.00591962505495,0.000631991721612
1506520940896773790,397927,1506520940896773790,,0.0855652717949,-0.0537585582418,0.586634953846,0.0061028785348,0.00693437054945,0.000602958315018
1506520940897776030,397928,1506520940897776030,,0.164359835897,-0.085306821978,0.875265810989,-0.00764901406593,-0.00200268630037,-0.00136250058608
1506520940898784018,397929,1506520940898784018,,0.096838625641,-0.0142909098901,0.819012225641,-0.00348373245421,0.00282897296703,-0.000387304322344
1506520940899762716,397930,1506520940899762716,,0.0623615296703,-0.0312400468864,0.878248794139,-0.00200551875458,0.00225910300366,-0.00132742080586
1506520940900781273,397931,1506520940900781273,,0.0648596454212,0.00482142417582,0.760123030037,-0.00324426842491,0.00124037164835,0.000602066227106
1506520940901787924,397932,1506520940901787924,,-0.0976167150183,0.0967419311355,0.878297315751,-0.000470421684982,0.00426660717949,0.00583399062271
1506520940902779619,397933,1506520940902779619,,0.127065148718,-0.0324614065934,0.701809169231,-0.00201523860806,0.00146018571429,-0.00146912161172
1506520940903765202,397934,1506520940903765202,,0.102992102564,-0.0504432468864,0.816992999267,-0.00893517054945,-0.000260594798535,0.000584822197802
1506520940904780081,397935,1506520940904780081,,0.0968375296703,-0.0134156278388,0.759996495238,-0.00346016271062,0.000842905934066,-0.000419010989011
1506520940905776814,397936,1506520940905776814,,0.130566775092,-0.0317192351648,0.876946482051,-0.00536044512821,0.00141676175824,-0.00137934813187
1506520940906765148,397937,1506520940906765148,,0.0942494945055,-0.0118050989011,0.818522376557,-0.00174221765568,-0.000104254139194,-0.000324179340659
1506520940907774375,397938,1506520940907774375,,0.092499229304,-0.012613825641,0.760461585348,-8.13992673993e-05,0.000910491355311,-0.000353212747253
1506520940908780677,397939,1506520940908780677,,0.0959261304029,-0.0175188923077,0.644364761905,-0.0018800407326,0.0058056240293,-0.000540202783883
1506520940909768652,397940,1506520940909768652,,0.0553452747253,0.00884428424908,0.877639882784,0.00357038512821,-0.000586363076923,0.000857527765568
1506520940910780408,397941,1506520940910780408,,0.0649267487179,-0.0330884014652,0.81853956337,-0.00370326417582,0.00320526886447,0.00167437091575
1506520940911768164,397942,1506520940911768164,,0.0915878300366,-0.0167170901099,0.644829852015,0.00149872271062,0.00587320945055,-0.000474404542125
1506520940912777286,397943,1506520940912777286,,0.0631093802198,0.0040126974359,0.702062238828,-0.00158345003663,0.00225511714286,0.000573032820513
1506520940913765963,397944,1506520940913765963,,0.0606772717949,-0.0690833172161,0.819588805861,-0.000780126373626,0.00325267868132,-0.000315856190476
1506520940914774296,397945,1506520940914774296,,0.0908149714286,-0.0504570959707,0.70180159707,0.00114399311355,0.00190406703297,0.000658351868132
1506520940915776401,397946,1506520940915776401,,0.0250440263736,0.0213675428571,0.70360880293,0.003648456337,0.00572098080586,0.00166258153846
1506520940916774750,397947,1506520940916774750,,0.0553365567766,-0.0338374974359,0.585806549451,0.00468152417582,0.00433102373626,0.00162136227106
1506520940917775367,397948,1506520940917775367,,0.0908149714286,-0.0504570959707,0.70180159707,0.00114399311355,0.00190406703297,0.000658351868132
1506520940918776779,397949,1506520940918776779,,0.0553365567766,-0.0338374974359,0.585806549451,0.00468152417582,0.00433102373626,0.00162136227106
1506520940919775173,397950,1506520940919775173,,0.0873155369963,-0.0529498315018,0.644695745055,0.00444206014652,0.00591962505495,0.000631991721612
1506520940920778385,397951,1506520940920778385,,0.126294482051,-0.0679519765568,0.876812375092,-0.00241710769231,0.00146317736264,-0.000272951868132
1506520940921766072,397952,1506520940921766072,,0.0580221333333,-0.0295629626374,0.819698153846,0.00139681443223,0.000340621391941,-0.00129332923077
1506520940922775353,397953,1506520940922775353,,0.122793951648,-0.0695694300366,0.760690792674,0.000904529084249,0.00349266835165,-0.000331018681319
1506520940923774992,397954,1506520940923774992,,0.157293863736,-0.0523824673993,0.702637573626,-0.000593884249084,0.00406353252747,-0.00248752556777
1506520940924780061,397955,1506520940924780061,,0.061360210989,0.00232868864469,0.703017178022,5.37986080586e-05,0.00525592967033,0.000575706080586
1506520940925775806,397956,1506520940925775806,,0.0623615296703,-0.0312400468864,0.878248794139,-0.00200551875458,0.00225910300366,-0.00132742080586
1506520940926777275,397957,1506520940926777275,,0.0917274666667,-0.0472291135531,0.876449060806,-0.000459698608059,-0.0010725840293,0.00081125032967
1506520940927775051,397958,1506520940927775051,,0.256988589011,0.151032533333,0.641054780952,-0.00144778058608,0.000960700586081,0.00255066857143
1506520940928774714,397959,1506520940928774714,,0.0890745201465,-0.00945932307692,0.994589869597,0.00167010271062,-1.25072527473e-05,-0.000102809377289
1506520940929775637,397960,1506520940929775637,,0.121117315751,-0.06385563663,0.934848407326,0.00104235216117,-0.00241720981685,-0.000114995238095
1506520940930779638,397961,1506520940930779638,,0.130565679121,-0.0308439531136,0.817930751648,-0.00533687538462,-0.000569305274725,-0.00141105479853
1506520940931766668,397962,1506520940931766668,,0.0969035369963,-0.0504501714286,0.759397298168,-0.00389558871795,0.000821736117216,0.000621587032967
1506520940932779717,397963,1506520940932779717,,0.130631686447,-0.0678784967033,0.817331554579,-0.00577230139194,-0.000590475091575,-0.000370456776557
1506520940933775858,397964,1506520940933775858,,0.0302937260073,0.0246690051282,0.818775446154,-0.00131042908425,0.000690677289377,0.00171797509158
1506520940934778914,397965,1506520940934778914,,0.130566775092,-0.0317192351648,0.876946482051,-0.00536044512821,0.00141676175824,-0.00137934813187
1506520940935776201,397966,1506520940935776201,,0.134066209524,-0.0292264996337,0.934052334066,-0.00865851216117,-0.00259879626374,-0.00135298798535
1506520940936777916,397967,1506520940936777916,,0.0950872644689,-0.0142243545788,0.701935704029,-0.00179934432234,0.00185765142857,-0.000448044395604
1506520940937777635,397968,1506520940937777635,,0.0994926681319,-0.0529359824176,0.759887147253,-0.00563710351648,0.00375496322344,0.000558462051282
1506520940938779483,397969,1506520940938779483,,0.130632782418,-0.0687537787546,0.876347284982,-0.00579587113553,0.00139559194139,-0.00033875010989
1506520940939779601,397970,1506520940939779601,,0.127132252015,-0.0703712322344,0.760225702564,-0.00247423435897,0.0034250829304,-0.000396816923077
1506520940940780671,397971,1506520940940780671,,0.102089421245,-0.0118647296703,0.993194599267,-0.00846618761905,-0.000215263516484,-0.000300204102564
1506520940941765883,397972,1506520940941765883,,0.0631764835165,-0.0338971282051,0.760478772161,-0.00204244578755,0.00422001435897,0.00164533750916
1506520940942780318,397973,1506520940942780318,,0.0925663326007,-0.0505236512821,0.818878118681,-0.000540395018315,0.00287538857143,0.000719091941392
1506520940943782207,397974,1506520940943782207,,0.0944054212454,-0.0865116424908,0.877523062271,-0.00265683904762,0.00184046747253,-0.0013079
1506520940944785518,397975,1506520940944785518,,0.124477113553,-0.0308508776557,0.760335050549,-0.000297293553114,0.000513025641026,-0.00137428996337
1506520940945782475,397976,1506520940945782475,,0.126293386081,-0.0670766945055,0.817796644689,-0.00239353794872,-0.00052288967033,-0.000304658534799
1506520940946782310,397977,1506520940946782310,,0.0977511208791,-0.0110629274725,0.993659689377,-0.00508742417582,-0.000147678095238,-0.000234405860806
1506520940947783445,397978,1506520940947783445,,0.0951532717949,-0.0512588981685,0.70133650696,-0.00223477032967,0.00183648161172,0.000592553626374
1506520940948780429,397979,1506520940948780429,,-0.0352574769231,-0.0134968791209,0.760952679853,-0.000108873772894,0.00245900879121,0.00271566879121
1506520940949783368,397980,1506520940949783368,,0.060587352381,-0.0314113172161,0.759988923077,-0.000300930989011,0.00128678725275,0.00170846249084
1506520940950787567,397981,1506520940950787567,,0.0605213450549,0.00562322637363,0.760588120147,0.000134495018315,0.0013079570696,0.000667864468864
1506520940951768633,397982,1506520940951768633,,0.124477113553,-0.0308508776557,0.760335050549,-0.000297293553114,0.000513025641026,-0.00137428996337
1506520940952785846,397983,1506520940952785846,,0.0606101684982,-0.0311734915751,0.761172272527,-0.000321130622711,0.0012877814652,-0.00138816087912
1506520940953787744,397984,1506520940953787744,,0.0631093802198,0.0040126974359,0.702062238828,-0.00158345003663,0.00225511714286,0.000573032820513
1506520940954782697,397985,1506520940954782697,,0.0605213450549,0.00562322637363,0.760588120147,0.000134495018315,0.0013079570696,0.000667864468864
1506520940955785726,397986,1506520940955785726,,0.124478209524,-0.031726159707,0.819350780952,-0.000320863296703,0.00249909267399,-0.0013425832967
1506520940956786334,397987,1506520940956786334,,0.126294482051,-0.0679519765568,0.876812375092,-0.00241710769231,0.00146317736264,-0.000272951868132
1506520940957785913,397988,1506520940957785913,,0.0571756454212,-0.0698254886447,0.64445149304,0.00256508014652,0.00329610263736,-0.00040562967033
1506520940958788963,397989,1506520940958788963,,0.0623376175824,-0.0306025904762,0.818049714286,-0.00196174937729,0.000272041758242,0.00173749589744
1506520940959787732,397990,1506520940959787732,,-0.0673901919414,0.0785714344322,0.761094259341,0.000998072161172,0.00289781992674,0.00475217333333
1506520940960787365,397991,1506520940960787365,,-0.0656388307692,0.0785048791209,0.878170780952,-0.000686315970696,0.0038691414652,0.00481291340659
1506520940961761423,397992,1506520940961761423,,0.0943383179487,-0.0486018168498,0.819106528938,-0.0021978432967,-0.00012442974359,-0.00238020468864
1506520940962784948,397993,1506520940962784948,,0.0943394139194,-0.0494770989011,0.878122259341,-0.00222141304029,0.00186163728938,-0.00234849802198
1506520940963788103,397994,1506520940963788103,,0.0605224410256,0.00474794432234,0.819603850549,0.000110925274725,0.00329402410256,0.000699571135531
1506520940964788612,397995,1506520940964788612,,0.0304496527473,-0.0500375384615,0.877776131868,-0.00222505047619,0.0026353989011,0.000734254432234
