%time,field.header.seq,field.header.stamp,field.header.frame_id,field.wrench.force.x,field.wrench.force.y,field.wrench.force.z,field.wrench.torque.x,field.wrench.torque.y,field.wrench.torque.z
1506520883729757851,340761,1506520883729757851,,0.0925003252747,-0.0134891076923,0.819477315751,-0.000104969010989,0.00289655838828,-0.000321506080586
1506520883730799196,340762,1506520883730799196,,0.092499229304,-0.012613825641,0.760461585348,-8.13992673993e-05,0.000910491355311,-0.000353212747253
1506520883731779966,340763,1506520883731779966,,0.092499229304,-0.012613825641,0.760461585348,-8.13992673993e-05,0.000910491355311,-0.000353212747253
1506520883732755845,340764,1506520883732755845,,0.0925003252747,-0.0134891076923,0.819477315751,-0.000104969010989,0.00289655838828,-0.000321506080586
1506520883733747339,340765,1506520883733747339,,0.0925003252747,-0.0134891076923,0.819477315751,-0.000104969010989,0.00289655838828,-0.000321506080586
1506520883734778917,340766,1506520883734778917,,0.0925003252747,-0.0134891076923,0.819477315751,-0.000104969010989,0.00289655838828,-0.000321506080586
1506520883735780431,340767,1506520883735780431,,0.0605213450549,0.00562322637363,0.760588120147,0.000134495018315,0.0013079570696,0.000667864468864
1506520883736754921,340768,1506520883736754921,,0.092499229304,-0.012613825641,0.760461585348,-8.13992673993e-05,0.000910491355311,-0.000353212747253
1506520883737782113,340769,1506520883737782113,,0.0925003252747,-0.0134891076923,0.819477315751,-0.000104969010989,0.00289655838828,-0.000321506080586
1506520883738756054,340770,1506520883738756054,,0.0925003252747,-0.0134891076923,0.819477315751,-0.000104969010989,0.00289655838828,-0.000321506080586
1506520883739765234,340771,1506520883739765234,,0.0605213450549,0.00562322637363,0.760588120147,0.000134495018315,0.0013079570696,0.000667864468864
1506520883740754943,340772,1506520883740754943,,0.09256523663,-0.0496483692308,0.759862388278,-0.000516825274725,0.000889321538462,0.000687385274725
1506520883741781948,340773,1506520883741781948,,0.092499229304,-0.012613825641,0.760461585348,-8.13992673993e-05,0.000910491355311,-0.000353212747253
1506520883742755445,340774,1506520883742755445,,0.092499229304,-0.012613825641,0.760461585348,-8.13992673993e-05,0.000910491355311,-0.000353212747253
1506520883743780777,340775,1506520883743780777,,0.0925003252747,-0.0134891076923,0.819477315751,-0.000104969010989,0.00289655838828,-0.000321506080586
1506520883744755153,340776,1506520883744755153,,0.092499229304,-0.012613825641,0.760461585348,-8.13992673993e-05,0.000910491355311,-0.000353212747253
1506520883745780623,340777,1506520883745780623,,0.0925003252747,-0.0134891076923,0.819477315751,-0.000104969010989,0.00289655838828,-0.000321506080586
1506520883746778168,340778,1506520883746778168,,0.092499229304,-0.012613825641,0.760461585348,-8.13992673993e-05,0.000910491355311,-0.000353212747253
1506520883747778686,340779,1506520883747778686,,0.092499229304,-0.012613825641,0.760461585348,-8.13992673993e-05,0.000910491355311,-0.000353212747253
1506520883748756026,340780,1506520883748756026,,0.092499229304,-0.012613825641,0.760461585348,-8.13992673993e-05,0.000910491355311,-0.000353212747253
1506520883749780785,340781,1506520883749780785,,0.092499229304,-0.012613825641,0.760461585348,-8.13992673993e-05,0.000910491355311,-0.000353212747253
1506520883750755575,340782,1506520883750755575,,0.09256523663,-0.0496483692308,0.759862388278,-0.000516825274725,0.000889321538462,0.000687385274725
1506520883751779128,340783,1506520883751779128,,0.092499229304,-0.012613825641,0.760461585348,-8.13992673993e-05,0.000910491355311,-0.000353212747253
1506520883752755883,340784,1506520883752755883,,0.0925003252747,-0.0134891076923,0.819477315751,-0.000104969010989,0.00289655838828,-0.000321506080586
1506520883753778622,340785,1506520883753778622,,0.0925003252747,-0.0134891076923,0.819477315751,-0.000104969010989,0.00289655838828,-0.000321506080586
1506520883754754879,340786,1506520883754754879,,0.09256523663,-0.0496483692308,0.759862388278,-0.000516825274725,0.000889321538462,0.000687385274725
1506520883755778981,340787,1506520883755778981,,0.092499229304,-0.012613825641,0.760461585348,-8.13992673993e-05,0.000910491355311,-0.000353212747253
1506520883756781725,340788,1506520883756781725,,0.0925003252747,-0.0134891076923,0.819477315751,-0.000104969010989,0.00289655838828,-0.000321506080586
1506520883757779073,340789,1506520883757779073,,0.092499229304,-0.012613825641,0.760461585348,-8.13992673993e-05,0.000910491355311,-0.000353212747253
1506520883758774029,340790,1506520883758774029,,0.092499229304,-0.012613825641,0.760461585348,-8.13992673993e-05,0.000910491355311,-0.000353212747253
1506520883759792181,340791,1506520883759792181,,0.0925003252747,-0.0134891076923,0.819477315751,-0.000104969010989,0.00289655838828,-0.000321506080586
1506520883760798058,340792,1506520883760798058,,0.092499229304,-0.012613825641,0.760461585348,-8.13992673993e-05,0.000910491355311,-0.000353212747253
1506520883761781578,340793,1506520883761781578,,0.0925003252747,-0.0134891076923,0.819477315751,-0.000104969010989,0.00289655838828,-0.000321506080586
1506520883762754688,340794,1506520883762754688,,0.092499229304,-0.012613825641,0.760461585348,-8.13992673993e-05,0.000910491355311,-0.000353212747253
1506520883763745198,340795,1506520883763745198,,0.0942505904762,-0.0126803809524,0.87753810696,-0.00176578739927,0.00188181289377,-0.000292472673993
1506520883764777202,340796,1506520883764777202,,0.0925003252747,-0.0134891076923,0.819477315751,-0.000104969010989,0.00289655838828,-0.000321506080586
1506520883765780523,340797,1506520883765780523,,0.0925003252747,-0.0134891076923,0.819477315751,-0.000104969010989,0.00289655838828,-0.000321506080586
1506520883766778626,340798,1506520883766778626,,0.092499229304,-0.012613825641,0.760461585348,-8.13992673993e-05,0.000910491355311,-0.000353212747253
1506520883767774362,340799,1506520883767774362,,0.0925003252747,-0.0134891076923,0.819477315751,-0.000104969010989,0.00289655838828,-0.000321506080586
1506520883768758014,340800,1506520883768758014,,0.0925003252747,-0.0134891076923,0.819477315751,-0.000104969010989,0.00289655838828,-0.000321506080586
1506520883769791146,340801,1506520883769791146,,0.092499229304,-0.012613825641,0.760461585348,-8.13992673993e-05,0.000910491355311,-0.000353212747253
1506520883770774921,340802,1506520883770774921,,0.09256523663,-0.0496483692308,0.759862388278,-0.000516825274725,0.000889321538462,0.000687385274725
1506520883771780147,340803,1506520883771780147,,0.0925003252747,-0.0134891076923,0.819477315751,-0.000104969010989,0.00289655838828,-0.000321506080586
1506520883772755498,340804,1506520883772755498,,0.092499229304,-0.012613825641,0.760461585348,-8.13992673993e-05,0.000910491355311,-0.000353212747253
1506520883773755533,340805,1506520883773755533,,0.092499229304,-0.012613825641,0.760461585348,-8.13992673993e-05,0.000910491355311,-0.000353212747253
1506520883774779185,340806,1506520883774779185,,0.0925003252747,-0.0134891076923,0.819477315751,-0.000104969010989,0.00289655838828,-0.000321506080586
1506520883775780855,340807,1506520883775780855,,0.0925003252747,-0.0134891076923,0.819477315751,-0.000104969010989,0.00289655838828,-0.000321506080586
1506520883776780017,340808,1506520883776780017,,0.092499229304,-0.012613825641,0.760461585348,-8.13992673993e-05,0.000910491355311,-0.000353212747253
1506520883777779639,340809,1506520883777779639,,0.0925003252747,-0.0134891076923,0.819477315751,-0.000104969010989,0.00289655838828,-0.000321506080586
1506520883778755920,340810,1506520883778755920,,0.092499229304,-0.012613825641,0.760461585348,-8.13992673993e-05,0.000910491355311,-0.000353212747253
1506520883779781284,340811,1506520883779781284,,0.0925003252747,-0.0134891076923,0.819477315751,-0.000104969010989,0.00289655838828,-0.000321506080586
1506520883780754709,340812,1506520883780754709,,0.092499229304,-0.012613825641,0.760461585348,-8.13992673993e-05,0.000910491355311,-0.000353212747253
1506520883781779714,340813,1506520883781779714,,0.0925003252747,-0.0134891076923,0.819477315751,-0.000104969010989,0.00289655838828,-0.000321506080586
1506520883782755368,340814,1506520883782755368,,0.0925003252747,-0.0134891076923,0.819477315751,-0.000104969010989,0.00289655838828,-0.000321506080586
1506520883783749533,340815,1506520883783749533,,0.092499229304,-0.012613825641,0.760461585348,-8.13992673993e-05,0.000910491355311,-0.000353212747253
1506520883784780840,340816,1506520883784780840,,0.0925003252747,-0.0134891076923,0.819477315751,-0.000104969010989,0.00289655838828,-0.000321506080586
1506520883785754559,340817,1506520883785754559,,0.0925003252747,-0.0134891076923,0.819477315751,-0.000104969010989,0.00289655838828,-0.000321506080586
1506520883786779411,340818,1506520883786779411,,0.092499229304,-0.012613825641,0.760461585348,-8.13992673993e-05,0.000910491355311,-0.000353212747253
1506520883787779293,340819,1506520883787779293,,0.0925003252747,-0.0134891076923,0.819477315751,-0.000104969010989,0.00289655838828,-0.000321506080586
1506520883788755742,340820,1506520883788755742,,0.0925003252747,-0.0134891076923,0.819477315751,-0.000104969010989,0.00289655838828,-0.000321506080586
1506520883789791505,340821,1506520883789791505,,0.0925003252747,-0.0134891076923,0.819477315751,-0.000104969010989,0.00289655838828,-0.000321506080586
1506520883790796577,340822,1506520883790796577,,0.0631093802198,0.0040126974359,0.702062238828,-0.00158345003663,0.00225511714286,0.000573032820513
1506520883791782510,340823,1506520883791782510,,0.0925003252747,-0.0134891076923,0.819477315751,-0.000104969010989,0.00289655838828,-0.000321506080586
1506520883792754707,340824,1506520883792754707,,0.09256523663,-0.0496483692308,0.759862388278,-0.000516825274725,0.000889321538462,0.000687385274725
1506520883793744825,340825,1506520883793744825,,0.092499229304,-0.012613825641,0.760461585348,-8.13992673993e-05,0.000910491355311,-0.000353212747253
1506520883794778484,340826,1506520883794778484,,0.092499229304,-0.012613825641,0.760461585348,-8.13992673993e-05,0.000910491355311,-0.000353212747253
1506520883795782015,340827,1506520883795782015,,0.0925003252747,-0.0134891076923,0.819477315751,-0.000104969010989,0.00289655838828,-0.000321506080586
1506520883796780877,340828,1506520883796780877,,0.0925003252747,-0.0134891076923,0.819477315751,-0.000104969010989,0.00289655838828,-0.000321506080586
1506520883797779902,340829,1506520883797779902,,0.0925003252747,-0.0134891076923,0.819477315751,-0.000104969010989,0.00289655838828,-0.000321506080586
1506520883798755831,340830,1506520883798755831,,0.092499229304,-0.012613825641,0.760461585348,-8.13992673993e-05,0.000910491355311,-0.000353212747253
1506520883799781826,340831,1506520883799781826,,0.0925003252747,-0.0134891076923,0.819477315751,-0.000104969010989,0.00289655838828,-0.000321506080586
1506520883800780652,340832,1506520883800780652,,0.092499229304,-0.012613825641,0.760461585348,-8.13992673993e-05,0.000910491355311,-0.000353212747253
1506520883801778924,340833,1506520883801778924,,0.092499229304,-0.012613825641,0.760461585348,-8.13992673993e-05,0.000910491355311,-0.000353212747253
1506520883802756210,340834,1506520883802756210,,0.0925003252747,-0.0134891076923,0.819477315751,-0.000104969010989,0.00289655838828,-0.000321506080586
1506520883803746582,340835,1506520883803746582,,0.0925003252747,-0.0134891076923,0.819477315751,-0.000104969010989,0.00289655838828,-0.000321506080586
1506520883804754129,340836,1506520883804754129,,0.0925003252747,-0.0134891076923,0.819477315751,-0.000104969010989,0.00289655838828,-0.000321506080586
1506520883805780181,340837,1506520883805780181,,0.0925003252747,-0.0134891076923,0.819477315751,-0.000104969010989,0.00289655838828,-0.000321506080586
1506520883806779011,340838,1506520883806779011,,0.0925003252747,-0.0134891076923,0.819477315751,-0.000104969010989,0.00289655838828,-0.000321506080586
1506520883807782037,340839,1506520883807782037,,0.092499229304,-0.012613825641,0.760461585348,-8.13992673993e-05,0.000910491355311,-0.000353212747253
1506520883808755699,340840,1506520883808755699,,0.09256523663,-0.0496483692308,0.759862388278,-0.000516825274725,0.000889321538462,0.000687385274725
1506520883809780851,340841,1506520883809780851,,0.09256523663,-0.0496483692308,0.759862388278,-0.000516825274725,0.000889321538462,0.000687385274725
1506520883810779269,340842,1506520883810779269,,0.092499229304,-0.012613825641,0.760461585348,-8.13992673993e-05,0.000910491355311,-0.000353212747253
1506520883811777756,340843,1506520883811777756,,0.09256523663,-0.0496483692308,0.759862388278,-0.000516825274725,0.000889321538462,0.000687385274725
1506520883812755558,340844,1506520883812755558,,0.09256523663,-0.0496483692308,0.759862388278,-0.000516825274725,0.000889321538462,0.000687385274725
1506520883813745955,340845,1506520883813745955,,0.0925003252747,-0.0134891076923,0.819477315751,-0.000104969010989,0.00289655838828,-0.000321506080586
1506520883814777679,340846,1506520883814777679,,0.092499229304,-0.012613825641,0.760461585348,-8.13992673993e-05,0.000910491355311,-0.000353212747253
1506520883815781306,340847,1506520883815781306,,0.0925003252747,-0.0134891076923,0.819477315751,-0.000104969010989,0.00289655838828,-0.000321506080586
1506520883816778530,340848,1506520883816778530,,0.092499229304,-0.012613825641,0.760461585348,-8.13992673993e-05,0.000910491355311,-0.000353212747253
1506520883817781187,340849,1506520883817781187,,0.09256523663,-0.0496483692308,0.759862388278,-0.000516825274725,0.000889321538462,0.000687385274725
1506520883818769031,340850,1506520883818769031,,0.092499229304,-0.012613825641,0.760461585348,-8.13992673993e-05,0.000910491355311,-0.000353212747253
1506520883819797908,340851,1506520883819797908,,0.092499229304,-0.012613825641,0.760461585348,-8.13992673993e-05,0.000910491355311,-0.000353212747253
1506520883820792583,340852,1506520883820792583,,0.092499229304,-0.012613825641,0.760461585348,-8.13992673993e-05,0.000910491355311,-0.000353212747253
1506520883821780417,340853,1506520883821780417,,0.0925003252747,-0.0134891076923,0.819477315751,-0.000104969010989,0.00289655838828,-0.000321506080586
1506520883822755627,340854,1506520883822755627,,0.092499229304,-0.012613825641,0.760461585348,-8.13992673993e-05,0.000910491355311,-0.000353212747253
1506520883823746500,340855,1506520883823746500,,0.092499229304,-0.012613825641,0.760461585348,-8.13992673993e-05,0.000910491355311,-0.000353212747253
1506520883824781168,340856,1506520883824781168,,0.0925003252747,-0.0134891076923,0.819477315751,-0.000104969010989,0.00289655838828,-0.000321506080586
1506520883825792291,340857,1506520883825792291,,0.0925003252747,-0.0134891076923,0.819477315751,-0.000104969010989,0.00289655838828,-0.000321506080586
1506520883826755867,340858,1506520883826755867,,0.0925003252747,-0.0134891076923,0.819477315751,-0.000104969010989,0.00289655838828,-0.000321506080586
1506520883827780002,340859,1506520883827780002,,0.0925003252747,-0.0134891076923,0.819477315751,-0.000104969010989,0.00289655838828,-0.000321506080586
1506520883828756166,340860,1506520883828756166,,0.0925003252747,-0.0134891076923,0.819477315751,-0.000104969010989,0.00289655838828,-0.000321506080586
1506520883829802573,340861,1506520883829802573,,0.0925003252747,-0.0134891076923,0.819477315751,-0.000104969010989,0.00289655838828,-0.000321506080586
1506520883830785364,340862,1506520883830785364,,0.0925003252747,-0.0134891076923,0.819477315751,-0.000104969010989,0.00289655838828,-0.000321506080586
1506520883831761936,340863,1506520883831761936,,0.092499229304,-0.012613825641,0.760461585348,-8.13992673993e-05,0.000910491355311,-0.000353212747253
1506520883832755560,340864,1506520883832755560,,0.092499229304,-0.012613825641,0.760461585348,-8.13992673993e-05,0.000910491355311,-0.000353212747253
1506520883833751560,340865,1506520883833751560,,0.092499229304,-0.012613825641,0.760461585348,-8.13992673993e-05,0.000910491355311,-0.000353212747253
1506520883834781122,340866,1506520883834781122,,0.092499229304,-0.012613825641,0.760461585348,-8.13992673993e-05,0.000910491355311,-0.000353212747253
1506520883835782039,340867,1506520883835782039,,0.092499229304,-0.012613825641,0.760461585348,-8.13992673993e-05,0.000910491355311,-0.000353212747253
1506520883836780938,340868,1506520883836780938,,0.0925003252747,-0.0134891076923,0.819477315751,-0.000104969010989,0.00289655838828,-0.000321506080586
1506520883837779602,340869,1506520883837779602,,0.092499229304,-0.012613825641,0.760461585348,-8.13992673993e-05,0.000910491355311,-0.000353212747253
1506520883838755922,340870,1506520883838755922,,0.09256523663,-0.0496483692308,0.759862388278,-0.000516825274725,0.000889321538462,0.000687385274725
1506520883839782886,340871,1506520883839782886,,0.092499229304,-0.012613825641,0.760461585348,-8.13992673993e-05,0.000910491355311,-0.000353212747253
1506520883840779807,340872,1506520883840779807,,0.092499229304,-0.012613825641,0.760461585348,-8.13992673993e-05,0.000910491355311,-0.000353212747253
1506520883841779501,340873,1506520883841779501,,0.092499229304,-0.012613825641,0.760461585348,-8.13992673993e-05,0.000910491355311,-0.000353212747253
1506520883842755683,340874,1506520883842755683,,0.092499229304,-0.012613825641,0.760461585348,-8.13992673993e-05,0.000910491355311,-0.000353212747253
1506520883843745830,340875,1506520883843745830,,0.0925003252747,-0.0134891076923,0.819477315751,-0.000104969010989,0.00289655838828,-0.000321506080586
1506520883844779640,340876,1506520883844779640,,0.092499229304,-0.012613825641,0.760461585348,-8.13992673993e-05,0.000910491355311,-0.000353212747253
1506520883845782321,340877,1506520883845782321,,0.0925003252747,-0.0134891076923,0.819477315751,-0.000104969010989,0.00289655838828,-0.000321506080586
1506520883846754627,340878,1506520883846754627,,0.092499229304,-0.012613825641,0.760461585348,-8.13992673993e-05,0.000910491355311,-0.000353212747253
1506520883847778534,340879,1506520883847778534,,0.092499229304,-0.012613825641,0.760461585348,-8.13992673993e-05,0.000910491355311,-0.000353212747253
1506520883848755586,340880,1506520883848755586,,0.092499229304,-0.012613825641,0.760461585348,-8.13992673993e-05,0.000910491355311,-0.000353212747253
1506520883849791616,340881,1506520883849791616,,0.0925003252747,-0.0134891076923,0.819477315751,-0.000104969010989,0.00289655838828,-0.000321506080586
1506520883850781052,340882,1506520883850781052,,0.092499229304,-0.012613825641,0.760461585348,-8.13992673993e-05,0.000910491355311,-0.000353212747253
1506520883851755209,340883,1506520883851755209,,0.09256523663,-0.0496483692308,0.759862388278,-0.000516825274725,0.000889321538462,0.000687385274725
1506520883852780540,340884,1506520883852780540,,0.092499229304,-0.012613825641,0.760461585348,-8.13992673993e-05,0.000910491355311,-0.000353212747253
1506520883853780501,340885,1506520883853780501,,0.0925003252747,-0.0134891076923,0.819477315751,-0.000104969010989,0.00289655838828,-0.000321506080586
1506520883854754967,340886,1506520883854754967,,0.092499229304,-0.012613825641,0.760461585348,-8.13992673993e-05,0.000910491355311,-0.000353212747253
1506520883855782674,340887,1506520883855782674,,0.092499229304,-0.012613825641,0.760461585348,-8.13992673993e-05,0.000910491355311,-0.000353212747253
1506520883856779359,340888,1506520883856779359,,0.092499229304,-0.012613825641,0.760461585348,-8.13992673993e-05,0.000910491355311,-0.000353212747253
1506520883857772041,340889,1506520883857772041,,0.09256523663,-0.0496483692308,0.759862388278,-0.000516825274725,0.000889321538462,0.000687385274725
1506520883858755378,340890,1506520883858755378,,0.092499229304,-0.012613825641,0.760461585348,-8.13992673993e-05,0.000910491355311,-0.000353212747253
1506520883859779699,340891,1506520883859779699,,0.0925003252747,-0.0134891076923,0.819477315751,-0.000104969010989,0.00289655838828,-0.000321506080586
1506520883860781279,340892,1506520883860781279,,0.09256523663,-0.0496483692308,0.759862388278,-0.000516825274725,0.000889321538462,0.000687385274725
1506520883861780204,340893,1506520883861780204,,0.0925003252747,-0.0134891076923,0.819477315751,-0.000104969010989,0.00289655838828,-0.000321506080586
1506520883862785121,340894,1506520883862785121,,0.0605224410256,0.00474794432234,0.819603850549,0.000110925274725,0.00329402410256,0.000699571135531
1506520883863745646,340895,1506520883863745646,,0.092499229304,-0.012613825641,0.760461585348,-8.13992673993e-05,0.000910491355311,-0.000353212747253
1506520883864777994,340896,1506520883864777994,,0.092499229304,-0.012613825641,0.760461585348,-8.13992673993e-05,0.000910491355311,-0.000353212747253
1506520883865780151,340897,1506520883865780151,,0.092499229304,-0.012613825641,0.760461585348,-8.13992673993e-05,0.000910491355311,-0.000353212747253
1506520883866778983,340898,1506520883866778983,,0.09256523663,-0.0496483692308,0.759862388278,-0.000516825274725,0.000889321538462,0.000687385274725
1506520883867782175,340899,1506520883867782175,,0.09256523663,-0.0496483692308,0.759862388278,-0.000516825274725,0.000889321538462,0.000687385274725
1506520883868755384,340900,1506520883868755384,,0.09256523663,-0.0496483692308,0.759862388278,-0.000516825274725,0.000889321538462,0.000687385274725
1506520883869781555,340901,1506520883869781555,,0.092499229304,-0.012613825641,0.760461585348,-8.13992673993e-05,0.000910491355311,-0.000353212747253
1506520883870778141,340902,1506520883870778141,,0.092499229304,-0.012613825641,0.760461585348,-8.13992673993e-05,0.000910491355311,-0.000353212747253
1506520883871780546,340903,1506520883871780546,,0.092499229304,-0.012613825641,0.760461585348,-8.13992673993e-05,0.000910491355311,-0.000353212747253
1506520883872756566,340904,1506520883872756566,,0.092499229304,-0.012613825641,0.760461585348,-8.13992673993e-05,0.000910491355311,-0.000353212747253
1506520883873746557,340905,1506520883873746557,,0.0925003252747,-0.0134891076923,0.819477315751,-0.000104969010989,0.00289655838828,-0.000321506080586
1506520883874778744,340906,1506520883874778744,,0.0925003252747,-0.0134891076923,0.819477315751,-0.000104969010989,0.00289655838828,-0.000321506080586
1506520883875783099,340907,1506520883875783099,,0.09256523663,-0.0496483692308,0.759862388278,-0.000516825274725,0.000889321538462,0.000687385274725
1506520883876755898,340908,1506520883876755898,,0.09256523663,-0.0496483692308,0.759862388278,-0.000516825274725,0.000889321538462,0.000687385274725
1506520883877780524,340909,1506520883877780524,,0.092499229304,-0.012613825641,0.760461585348,-8.13992673993e-05,0.000910491355311,-0.000353212747253
1506520883878755785,340910,1506520883878755785,,0.0925663326007,-0.0505236512821,0.818878118681,-0.000540395018315,0.00287538857143,0.000719091941392
1506520883879781111,340911,1506520883879781111,,0.0925003252747,-0.0134891076923,0.819477315751,-0.000104969010989,0.00289655838828,-0.000321506080586
1506520883880779139,340912,1506520883880779139,,0.0925003252747,-0.0134891076923,0.819477315751,-0.000104969010989,0.00289655838828,-0.000321506080586
1506520883881778785,340913,1506520883881778785,,0.0925003252747,-0.0134891076923,0.819477315751,-0.000104969010989,0.00289655838828,-0.000321506080586
1506520883882756533,340914,1506520883882756533,,0.0925003252747,-0.0134891076923,0.819477315751,-0.000104969010989,0.00289655838828,-0.000321506080586
1506520883883779761,340915,1506520883883779761,,0.0925003252747,-0.0134891076923,0.819477315751,-0.000104969010989,0.00289655838828,-0.000321506080586
1506520883884755007,340916,1506520883884755007,,0.0925003252747,-0.0134891076923,0.819477315751,-0.000104969010989,0.00289655838828,-0.000321506080586
1506520883885779934,340917,1506520883885779934,,0.0925003252747,-0.0134891076923,0.819477315751,-0.000104969010989,0.00289655838828,-0.000321506080586
1506520883886779585,340918,1506520883886779585,,0.0925003252747,-0.0134891076923,0.819477315751,-0.000104969010989,0.00289655838828,-0.000321506080586
1506520883887780487,340919,1506520883887780487,,0.092499229304,-0.012613825641,0.760461585348,-8.13992673993e-05,0.000910491355311,-0.000353212747253
1506520883888755848,340920,1506520883888755848,,0.092499229304,-0.012613825641,0.760461585348,-8.13992673993e-05,0.000910491355311,-0.000353212747253
1506520883889758250,340921,1506520883889758250,,0.092499229304,-0.012613825641,0.760461585348,-8.13992673993e-05,0.000910491355311,-0.000353212747253
1506520883890779237,340922,1506520883890779237,,0.0605213450549,0.00562322637363,0.760588120147,0.000134495018315,0.0013079570696,0.000667864468864
1506520883891779372,340923,1506520883891779372,,0.092499229304,-0.012613825641,0.760461585348,-8.13992673993e-05,0.000910491355311,-0.000353212747253
1506520883892755224,340924,1506520883892755224,,0.0925003252747,-0.0134891076923,0.819477315751,-0.000104969010989,0.00289655838828,-0.000321506080586
1506520883893779191,340925,1506520883893779191,,0.0925003252747,-0.0134891076923,0.819477315751,-0.000104969010989,0.00289655838828,-0.000321506080586
1506520883894755088,340926,1506520883894755088,,0.0925003252747,-0.0134891076923,0.819477315751,-0.000104969010989,0.00289655838828,-0.000321506080586
1506520883895780842,340927,1506520883895780842,,0.0925003252747,-0.0134891076923,0.819477315751,-0.000104969010989,0.00289655838828,-0.000321506080586
1506520883896780673,340928,1506520883896780673,,0.0925003252747,-0.0134891076923,0.819477315751,-0.000104969010989,0.00289655838828,-0.000321506080586
1506520883897791812,340929,1506520883897791812,,0.0925003252747,-0.0134891076923,0.819477315751,-0.000104969010989,0.00289655838828,-0.000321506080586
1506520883898779733,340930,1506520883898779733,,0.092499229304,-0.012613825641,0.760461585348,-8.13992673993e-05,0.000910491355311,-0.000353212747253
1506520883899779532,340931,1506520883899779532,,0.092499229304,-0.012613825641,0.760461585348,-8.13992673993e-05,0.000910491355311,-0.000353212747253
1506520883900755882,340932,1506520883900755882,,0.092499229304,-0.012613825641,0.760461585348,-8.13992673993e-05,0.000910491355311,-0.000353212747253
1506520883901781202,340933,1506520883901781202,,0.0925003252747,-0.0134891076923,0.819477315751,-0.000104969010989,0.00289655838828,-0.000321506080586
1506520883902754891,340934,1506520883902754891,,0.0925003252747,-0.0134891076923,0.819477315751,-0.000104969010989,0.00289655838828,-0.000321506080586
1506520883903744576,340935,1506520883903744576,,0.0925003252747,-0.0134891076923,0.819477315751,-0.000104969010989,0.00289655838828,-0.000321506080586
1506520883904778301,340936,1506520883904778301,,0.092499229304,-0.012613825641,0.760461585348,-8.13992673993e-05,0.000910491355311,-0.000353212747253
1506520883905781214,340937,1506520883905781214,,0.092499229304,-0.012613825641,0.760461585348,-8.13992673993e-05,0.000910491355311,-0.000353212747253
1506520883906779011,340938,1506520883906779011,,0.092499229304,-0.012613825641,0.760461585348,-8.13992673993e-05,0.000910491355311,-0.000353212747253
1506520883907753555,340939,1506520883907753555,,0.092499229304,-0.012613825641,0.760461585348,-8.13992673993e-05,0.000910491355311,-0.000353212747253
1506520883908779151,340940,1506520883908779151,,0.0925003252747,-0.0134891076923,0.819477315751,-0.000104969010989,0.00289655838828,-0.000321506080586
1506520883909779645,340941,1506520883909779645,,0.092499229304,-0.012613825641,0.760461585348,-8.13992673993e-05,0.000910491355311,-0.000353212747253
1506520883910755770,340942,1506520883910755770,,0.092499229304,-0.012613825641,0.760461585348,-8.13992673993e-05,0.000910491355311,-0.000353212747253
1506520883911779485,340943,1506520883911779485,,0.092499229304,-0.012613825641,0.760461585348,-8.13992673993e-05,0.000910491355311,-0.000353212747253
1506520883912755220,340944,1506520883912755220,,0.09256523663,-0.0496483692308,0.759862388278,-0.000516825274725,0.000889321538462,0.000687385274725
1506520883913777024,340945,1506520883913777024,,0.092499229304,-0.012613825641,0.760461585348,-8.13992673993e-05,0.000910491355311,-0.000353212747253
1506520883914754847,340946,1506520883914754847,,0.0925003252747,-0.0134891076923,0.819477315751,-0.000104969010989,0.00289655838828,-0.000321506080586
1506520883915781096,340947,1506520883915781096,,0.0925003252747,-0.0134891076923,0.819477315751,-0.000104969010989,0.00289655838828,-0.000321506080586
1506520883916781335,340948,1506520883916781335,,0.0925663326007,-0.0505236512821,0.818878118681,-0.000540395018315,0.00287538857143,0.000719091941392
1506520883917756281,340949,1506520883917756281,,0.092499229304,-0.012613825641,0.760461585348,-8.13992673993e-05,0.000910491355311,-0.000353212747253
1506520883918781670,340950,1506520883918781670,,0.092499229304,-0.012613825641,0.760461585348,-8.13992673993e-05,0.000910491355311,-0.000353212747253
1506520883919756253,340951,1506520883919756253,,0.092499229304,-0.012613825641,0.760461585348,-8.13992673993e-05,0.000910491355311,-0.000353212747253
1506520883920839290,340952,1506520883920839290,,0.0631753875458,-0.0330218461538,0.701463041758,-0.00201887604396,0.00223394732601,0.00161363084249
1506520883921781905,340953,1506520883921781905,,0.0925003252747,-0.0134891076923,0.819477315751,-0.000104969010989,0.00289655838828,-0.000321506080586
1506520883922756416,340954,1506520883922756416,,0.092499229304,-0.012613825641,0.760461585348,-8.13992673993e-05,0.000910491355311,-0.000353212747253
1506520883923746443,340955,1506520883923746443,,0.092499229304,-0.012613825641,0.760461585348,-8.13992673993e-05,0.000910491355311,-0.000353212747253
1506520883924778186,340956,1506520883924778186,,0.0925003252747,-0.0134891076923,0.819477315751,-0.000104969010989,0.00289655838828,-0.000321506080586
1506520883925781309,340957,1506520883925781309,,0.092499229304,-0.012613825641,0.760461585348,-8.13992673993e-05,0.000910491355311,-0.000353212747253
1506520883926755781,340958,1506520883926755781,,0.0925003252747,-0.0134891076923,0.819477315751,-0.000104969010989,0.00289655838828,-0.000321506080586
1506520883927771659,340959,1506520883927771659,,0.0925003252747,-0.0134891076923,0.819477315751,-0.000104969010989,0.00289655838828,-0.000321506080586
1506520883928755893,340960,1506520883928755893,,0.092499229304,-0.012613825641,0.760461585348,-8.13992673993e-05,0.000910491355311,-0.000353212747253
1506520883929780700,340961,1506520883929780700,,0.092499229304,-0.012613825641,0.760461585348,-8.13992673993e-05,0.000910491355311,-0.000353212747253
1506520883930755433,340962,1506520883930755433,,0.092499229304,-0.012613825641,0.760461585348,-8.13992673993e-05,0.000910491355311,-0.000353212747253
1506520883931780300,340963,1506520883931780300,,0.0605224410256,0.00474794432234,0.819603850549,0.000110925274725,0.00329402410256,0.000699571135531
1506520883932755747,340964,1506520883932755747,,0.092499229304,-0.012613825641,0.760461585348,-8.13992673993e-05,0.000910491355311,-0.000353212747253
1506520883933779047,340965,1506520883933779047,,0.0925003252747,-0.0134891076923,0.819477315751,-0.000104969010989,0.00289655838828,-0.000321506080586
1506520883934755988,340966,1506520883934755988,,0.0925003252747,-0.0134891076923,0.819477315751,-0.000104969010989,0.00289655838828,-0.000321506080586
1506520883935780009,340967,1506520883935780009,,0.092499229304,-0.012613825641,0.760461585348,-8.13992673993e-05,0.000910491355311,-0.000353212747253
1506520883936779990,340968,1506520883936779990,,0.092499229304,-0.012613825641,0.760461585348,-8.13992673993e-05,0.000910491355311,-0.000353212747253
1506520883937778859,340969,1506520883937778859,,0.092499229304,-0.012613825641,0.760461585348,-8.13992673993e-05,0.000910491355311,-0.000353212747253
1506520883938755209,340970,1506520883938755209,,0.092499229304,-0.012613825641,0.760461585348,-8.13992673993e-05,0.000910491355311,-0.000353212747253
1506520883939783555,340971,1506520883939783555,,0.092499229304,-0.012613825641,0.760461585348,-8.13992673993e-05,0.000910491355311,-0.000353212747253
1506520883940780531,340972,1506520883940780531,,0.092499229304,-0.012613825641,0.760461585348,-8.13992673993e-05,0.000910491355311,-0.000353212747253
1506520883941754586,340973,1506520883941754586,,0.092499229304,-0.012613825641,0.760461585348,-8.13992673993e-05,0.000910491355311,-0.000353212747253
1506520883942781771,340974,1506520883942781771,,0.0925003252747,-0.0134891076923,0.819477315751,-0.000104969010989,0.00289655838828,-0.000321506080586
1506520883943780316,340975,1506520883943780316,,0.092499229304,-0.012613825641,0.760461585348,-8.13992673993e-05,0.000910491355311,-0.000353212747253
1506520883944755094,340976,1506520883944755094,,0.0925003252747,-0.0134891076923,0.819477315751,-0.000104969010989,0.00289655838828,-0.000321506080586
1506520883945778589,340977,1506520883945778589,,0.0925003252747,-0.0134891076923,0.819477315751,-0.000104969010989,0.00289655838828,-0.000321506080586
1506520883946780557,340978,1506520883946780557,,0.092499229304,-0.012613825641,0.760461585348,-8.13992673993e-05,0.000910491355311,-0.000353212747253
1506520883947781111,340979,1506520883947781111,,0.0925663326007,-0.0505236512821,0.818878118681,-0.000540395018315,0.00287538857143,0.000719091941392
1506520883948755277,340980,1506520883948755277,,0.092499229304,-0.012613825641,0.760461585348,-8.13992673993e-05,0.000910491355311,-0.000353212747253
1506520883949781893,340981,1506520883949781893,,0.092499229304,-0.012613825641,0.760461585348,-8.13992673993e-05,0.000910491355311,-0.000353212747253
1506520883950780908,340982,1506520883950780908,,0.092499229304,-0.012613825641,0.760461585348,-8.13992673993e-05,0.000910491355311,-0.000353212747253
1506520883951779960,340983,1506520883951779960,,0.0925003252747,-0.0134891076923,0.819477315751,-0.000104969010989,0.00289655838828,-0.000321506080586
1506520883952755839,340984,1506520883952755839,,0.0925003252747,-0.0134891076923,0.819477315751,-0.000104969010989,0.00289655838828,-0.000321506080586
1506520883953780270,340985,1506520883953780270,,0.092499229304,-0.012613825641,0.760461585348,-8.13992673993e-05,0.000910491355311,-0.000353212747253
1506520883954754886,340986,1506520883954754886,,0.092499229304,-0.012613825641,0.760461585348,-8.13992673993e-05,0.000910491355311,-0.000353212747253
1506520883955781751,340987,1506520883955781751,,0.092499229304,-0.012613825641,0.760461585348,-8.13992673993e-05,0.000910491355311,-0.000353212747253
1506520883956780733,340988,1506520883956780733,,0.092499229304,-0.012613825641,0.760461585348,-8.13992673993e-05,0.000910491355311,-0.000353212747253
1506520883957779953,340989,1506520883957779953,,0.092499229304,-0.012613825641,0.760461585348,-8.13992673993e-05,0.000910491355311,-0.000353212747253
1506520883958755781,340990,1506520883958755781,,0.092499229304,-0.012613825641,0.760461585348,-8.13992673993e-05,0.000910491355311,-0.000353212747253
1506520883959757094,340991,1506520883959757094,,0.09256523663,-0.0496483692308,0.759862388278,-0.000516825274725,0.000889321538462,0.000687385274725
1506520883960784745,340992,1506520883960784745,,0.0925003252747,-0.0134891076923,0.819477315751,-0.000104969010989,0.00289655838828,-0.000321506080586
1506520883961779902,340993,1506520883961779902,,0.0925003252747,-0.0134891076923,0.819477315751,-0.000104969010989,0.00289655838828,-0.000321506080586
1506520883962755484,340994,1506520883962755484,,0.092499229304,-0.012613825641,0.760461585348,-8.13992673993e-05,0.000910491355311,-0.000353212747253
1506520883963779508,340995,1506520883963779508,,0.092499229304,-0.012613825641,0.760461585348,-8.13992673993e-05,0.000910491355311,-0.000353212747253
1506520883964755312,340996,1506520883964755312,,0.092499229304,-0.012613825641,0.760461585348,-8.13992673993e-05,0.000910491355311,-0.000353212747253
1506520883965777892,340997,1506520883965777892,,0.092499229304,-0.012613825641,0.760461585348,-8.13992673993e-05,0.000910491355311,-0.000353212747253
1506520883966756108,340998,1506520883966756108,,0.0925663326007,-0.0505236512821,0.818878118681,-0.000540395018315,0.00287538857143,0.000719091941392
1506520883967770613,340999,1506520883967770613,,0.0605224410256,0.00474794432234,0.819603850549,0.000110925274725,0.00329402410256,0.000699571135531
1506520883968755102,341000,1506520883968755102,,0.0925663326007,-0.0505236512821,0.818878118681,-0.000540395018315,0.00287538857143,0.000719091941392
1506520883969779081,341001,1506520883969779081,,0.09256523663,-0.0496483692308,0.759862388278,-0.000516825274725,0.000889321538462,0.000687385274725
1506520883970756892,341002,1506520883970756892,,0.092499229304,-0.012613825641,0.760461585348,-8.13992673993e-05,0.000910491355311,-0.000353212747253
1506520883971779508,341003,1506520883971779508,,0.092499229304,-0.012613825641,0.760461585348,-8.13992673993e-05,0.000910491355311,-0.000353212747253
1506520883972754676,341004,1506520883972754676,,0.092499229304,-0.012613825641,0.760461585348,-8.13992673993e-05,0.000910491355311,-0.000353212747253
1506520883973745133,341005,1506520883973745133,,0.0925003252747,-0.0134891076923,0.819477315751,-0.000104969010989,0.00289655838828,-0.000321506080586
1506520883974780100,341006,1506520883974780100,,0.092499229304,-0.012613825641,0.760461585348,-8.13992673993e-05,0.000910491355311,-0.000353212747253
1506520883975781276,341007,1506520883975781276,,0.092499229304,-0.012613825641,0.760461585348,-8.13992673993e-05,0.000910491355311,-0.000353212747253
1506520883976756528,341008,1506520883976756528,,0.0925003252747,-0.0134891076923,0.819477315751,-0.000104969010989,0.00289655838828,-0.000321506080586
1506520883977779934,341009,1506520883977779934,,0.092499229304,-0.012613825641,0.760461585348,-8.13992673993e-05,0.000910491355311,-0.000353212747253
1506520883978762737,341010,1506520883978762737,,0.092499229304,-0.012613825641,0.760461585348,-8.13992673993e-05,0.000910491355311,-0.000353212747253
1506520883979768865,341011,1506520883979768865,,0.0925003252747,-0.0134891076923,0.819477315751,-0.000104969010989,0.00289655838828,-0.000321506080586
1506520883980782232,341012,1506520883980782232,,0.0925003252747,-0.0134891076923,0.819477315751,-0.000104969010989,0.00289655838828,-0.000321506080586
1506520883981777732,341013,1506520883981777732,,0.092499229304,-0.012613825641,0.760461585348,-8.13992673993e-05,0.000910491355311,-0.000353212747253
1506520883982756773,341014,1506520883982756773,,0.092499229304,-0.012613825641,0.760461585348,-8.13992673993e-05,0.000910491355311,-0.000353212747253
1506520883983780881,341015,1506520883983780881,,0.092499229304,-0.012613825641,0.760461585348,-8.13992673993e-05,0.000910491355311,-0.000353212747253
1506520883984756991,341016,1506520883984756991,,0.092499229304,-0.012613825641,0.760461585348,-8.13992673993e-05,0.000910491355311,-0.000353212747253
1506520883985783429,341017,1506520883985783429,,0.092499229304,-0.012613825641,0.760461585348,-8.13992673993e-05,0.000910491355311,-0.000353212747253
1506520883986756800,341018,1506520883986756800,,0.092499229304,-0.012613825641,0.760461585348,-8.13992673993e-05,0.000910491355311,-0.000353212747253
1506520883987771224,341019,1506520883987771224,,0.092499229304,-0.012613825641,0.760461585348,-8.13992673993e-05,0.000910491355311,-0.000353212747253
1506520883988779209,341020,1506520883988779209,,0.092499229304,-0.012613825641,0.760461585348,-8.13992673993e-05,0.000910491355311,-0.000353212747253
1506520883989764110,341021,1506520883989764110,,0.092499229304,-0.012613825641,0.760461585348,-8.13992673993e-05,0.000910491355311,-0.000353212747253
1506520883990780261,341022,1506520883990780261,,0.0925003252747,-0.0134891076923,0.819477315751,-0.000104969010989,0.00289655838828,-0.000321506080586
1506520883991778133,341023,1506520883991778133,,0.092499229304,-0.012613825641,0.760461585348,-8.13992673993e-05,0.000910491355311,-0.000353212747253
1506520883992753949,341024,1506520883992753949,,0.0925003252747,-0.0134891076923,0.819477315751,-0.000104969010989,0.00289655838828,-0.000321506080586
1506520883993782149,341025,1506520883993782149,,0.092499229304,-0.012613825641,0.760461585348,-8.13992673993e-05,0.000910491355311,-0.000353212747253
1506520883994757074,341026,1506520883994757074,,0.0925003252747,-0.0134891076923,0.819477315751,-0.000104969010989,0.00289655838828,-0.000321506080586
1506520883995789471,341027,1506520883995789471,,0.0925003252747,-0.0134891076923,0.819477315751,-0.000104969010989,0.00289655838828,-0.000321506080586
1506520883996790847,341028,1506520883996790847,,0.092499229304,-0.012613825641,0.760461585348,-8.13992673993e-05,0.000910491355311,-0.000353212747253
1506520883997780937,341029,1506520883997780937,,0.0925003252747,-0.0134891076923,0.819477315751,-0.000104969010989,0.00289655838828,-0.000321506080586
1506520883998764602,341030,1506520883998764602,,0.092499229304,-0.012613825641,0.760461585348,-8.13992673993e-05,0.000910491355311,-0.000353212747253
1506520883999756072,341031,1506520883999756072,,0.0925003252747,-0.0134891076923,0.819477315751,-0.000104969010989,0.00289655838828,-0.000321506080586
1506520884000781067,341032,1506520884000781067,,0.0925003252747,-0.0134891076923,0.819477315751,-0.000104969010989,0.00289655838828,-0.000321506080586
1506520884001781241,341033,1506520884001781241,,0.092499229304,-0.012613825641,0.760461585348,-8.13992673993e-05,0.000910491355311,-0.000353212747253
1506520884002756334,341034,1506520884002756334,,0.0925003252747,-0.0134891076923,0.819477315751,-0.000104969010989,0.00289655838828,-0.000321506080586
1506520884003749862,341035,1506520884003749862,,0.0925003252747,-0.0134891076923,0.819477315751,-0.000104969010989,0.00289655838828,-0.000321506080586
1506520884004797451,341036,1506520884004797451,,0.09256523663,-0.0496483692308,0.759862388278,-0.000516825274725,0.000889321538462,0.000687385274725
1506520884005782780,341037,1506520884005782780,,0.092499229304,-0.012613825641,0.760461585348,-8.13992673993e-05,0.000910491355311,-0.000353212747253
1506520884006756418,341038,1506520884006756418,,0.092499229304,-0.012613825641,0.760461585348,-8.13992673993e-05,0.000910491355311,-0.000353212747253
1506520884007771271,341039,1506520884007771271,,0.0925003252747,-0.0134891076923,0.819477315751,-0.000104969010989,0.00289655838828,-0.000321506080586
1506520884008758049,341040,1506520884008758049,,0.092499229304,-0.012613825641,0.760461585348,-8.13992673993e-05,0.000910491355311,-0.000353212747253
1506520884009768389,341041,1506520884009768389,,0.092499229304,-0.012613825641,0.760461585348,-8.13992673993e-05,0.000910491355311,-0.000353212747253
1506520884010784571,341042,1506520884010784571,,0.0925003252747,-0.0134891076923,0.819477315751,-0.000104969010989,0.00289655838828,-0.000321506080586
1506520884011781183,341043,1506520884011781183,,0.092499229304,-0.012613825641,0.760461585348,-8.13992673993e-05,0.000910491355311,-0.000353212747253
1506520884012756780,341044,1506520884012756780,,0.0925003252747,-0.0134891076923,0.819477315751,-0.000104969010989,0.00289655838828,-0.000321506080586
1506520884013781740,341045,1506520884013781740,,0.092499229304,-0.012613825641,0.760461585348,-8.13992673993e-05,0.000910491355311,-0.000353212747253
1506520884014756815,341046,1506520884014756815,,0.0925003252747,-0.0134891076923,0.819477315751,-0.000104969010989,0.00289655838828,-0.000321506080586
1506520884015785083,341047,1506520884015785083,,0.0925003252747,-0.0134891076923,0.819477315751,-0.000104969010989,0.00289655838828,-0.000321506080586
1506520884016780862,341048,1506520884016780862,,0.0925663326007,-0.0505236512821,0.818878118681,-0.000540395018315,0.00287538857143,0.000719091941392
1506520884017755400,341049,1506520884017755400,,0.092499229304,-0.012613825641,0.760461585348,-8.13992673993e-05,0.000910491355311,-0.000353212747253
1506520884018799878,341050,1506520884018799878,,0.0925003252747,-0.0134891076923,0.819477315751,-0.000104969010989,0.00289655838828,-0.000321506080586
1506520884019756125,341051,1506520884019756125,,0.0925003252747,-0.0134891076923,0.819477315751,-0.000104969010989,0.00289655838828,-0.000321506080586
1506520884020785227,341052,1506520884020785227,,0.092499229304,-0.012613825641,0.760461585348,-8.13992673993e-05,0.000910491355311,-0.000353212747253
1506520884021758454,341053,1506520884021758454,,0.092499229304,-0.012613825641,0.760461585348,-8.13992673993e-05,0.000910491355311,-0.000353212747253
1506520884022782433,341054,1506520884022782433,,0.09256523663,-0.0496483692308,0.759862388278,-0.000516825274725,0.000889321538462,0.000687385274725
1506520884023780749,341055,1506520884023780749,,0.0605213450549,0.00562322637363,0.760588120147,0.000134495018315,0.0013079570696,0.000667864468864
1506520884024755803,341056,1506520884024755803,,0.092499229304,-0.012613825641,0.760461585348,-8.13992673993e-05,0.000910491355311,-0.000353212747253
1506520884025781345,341057,1506520884025781345,,0.092499229304,-0.012613825641,0.760461585348,-8.13992673993e-05,0.000910491355311,-0.000353212747253
1506520884026781644,341058,1506520884026781644,,0.092499229304,-0.012613825641,0.760461585348,-8.13992673993e-05,0.000910491355311,-0.000353212747253
1506520884027771225,341059,1506520884027771225,,0.0925003252747,-0.0134891076923,0.819477315751,-0.000104969010989,0.00289655838828,-0.000321506080586
1506520884028764975,341060,1506520884028764975,,0.0925003252747,-0.0134891076923,0.819477315751,-0.000104969010989,0.00289655838828,-0.000321506080586
1506520884029756763,341061,1506520884029756763,,0.0925003252747,-0.0134891076923,0.819477315751,-0.000104969010989,0.00289655838828,-0.000321506080586
1506520884030785635,341062,1506520884030785635,,0.0925663326007,-0.0505236512821,0.818878118681,-0.000540395018315,0.00287538857143,0.000719091941392
1506520884031786429,341063,1506520884031786429,,0.0925003252747,-0.0134891076923,0.819477315751,-0.000104969010989,0.00289655838828,-0.000321506080586
1506520884032780582,341064,1506520884032780582,,0.092499229304,-0.012613825641,0.760461585348,-8.13992673993e-05,0.000910491355311,-0.000353212747253
1506520884033747349,341065,1506520884033747349,,0.0925663326007,-0.0505236512821,0.818878118681,-0.000540395018315,0.00287538857143,0.000719091941392
1506520884034779275,341066,1506520884034779275,,0.092499229304,-0.012613825641,0.760461585348,-8.13992673993e-05,0.000910491355311,-0.000353212747253
1506520884035780120,341067,1506520884035780120,,0.092499229304,-0.012613825641,0.760461585348,-8.13992673993e-05,0.000910491355311,-0.000353212747253
1506520884036778110,341068,1506520884036778110,,0.0925663326007,-0.0505236512821,0.818878118681,-0.000540395018315,0.00287538857143,0.000719091941392
1506520884037778886,341069,1506520884037778886,,0.092499229304,-0.012613825641,0.760461585348,-8.13992673993e-05,0.000910491355311,-0.000353212747253
1506520884038781040,341070,1506520884038781040,,0.092499229304,-0.012613825641,0.760461585348,-8.13992673993e-05,0.000910491355311,-0.000353212747253
1506520884039764536,341071,1506520884039764536,,0.092499229304,-0.012613825641,0.760461585348,-8.13992673993e-05,0.000910491355311,-0.000353212747253
1506520884040791319,341072,1506520884040791319,,0.09256523663,-0.0496483692308,0.759862388278,-0.000516825274725,0.000889321538462,0.000687385274725
1506520884041777560,341073,1506520884041777560,,0.092499229304,-0.012613825641,0.760461585348,-8.13992673993e-05,0.000910491355311,-0.000353212747253
1506520884042779861,341074,1506520884042779861,,0.0925003252747,-0.0134891076923,0.819477315751,-0.000104969010989,0.00289655838828,-0.000321506080586
1506520884043779890,341075,1506520884043779890,,0.0925663326007,-0.0505236512821,0.818878118681,-0.000540395018315,0.00287538857143,0.000719091941392
1506520884044778108,341076,1506520884044778108,,0.0925003252747,-0.0134891076923,0.819477315751,-0.000104969010989,0.00289655838828,-0.000321506080586
1506520884045777477,341077,1506520884045777477,,0.0605213450549,0.00562322637363,0.760588120147,0.000134495018315,0.0013079570696,0.000667864468864
1506520884046778496,341078,1506520884046778496,,0.092499229304,-0.012613825641,0.760461585348,-8.13992673993e-05,0.000910491355311,-0.000353212747253
1506520884047769286,341079,1506520884047769286,,0.0925003252747,-0.0134891076923,0.819477315751,-0.000104969010989,0.00289655838828,-0.000321506080586
1506520884048780289,341080,1506520884048780289,,0.0925003252747,-0.0134891076923,0.819477315751,-0.000104969010989,0.00289655838828,-0.000321506080586
1506520884049778291,341081,1506520884049778291,,0.0925003252747,-0.0134891076923,0.819477315751,-0.000104969010989,0.00289655838828,-0.000321506080586
1506520884050795996,341082,1506520884050795996,,0.092499229304,-0.012613825641,0.760461585348,-8.13992673993e-05,0.000910491355311,-0.000353212747253
1506520884051754061,341083,1506520884051754061,,0.0925663326007,-0.0505236512821,0.818878118681,-0.000540395018315,0.00287538857143,0.000719091941392
1506520884052779521,341084,1506520884052779521,,0.0925003252747,-0.0134891076923,0.819477315751,-0.000104969010989,0.00289655838828,-0.000321506080586
1506520884053778648,341085,1506520884053778648,,0.092499229304,-0.012613825641,0.760461585348,-8.13992673993e-05,0.000910491355311,-0.000353212747253
1506520884054779061,341086,1506520884054779061,,0.092499229304,-0.012613825641,0.760461585348,-8.13992673993e-05,0.000910491355311,-0.000353212747253
1506520884055781587,341087,1506520884055781587,,0.0925663326007,-0.0505236512821,0.818878118681,-0.000540395018315,0.00287538857143,0.000719091941392
1506520884056781055,341088,1506520884056781055,,0.092499229304,-0.012613825641,0.760461585348,-8.13992673993e-05,0.000910491355311,-0.000353212747253
1506520884057779917,341089,1506520884057779917,,0.092499229304,-0.012613825641,0.760461585348,-8.13992673993e-05,0.000910491355311,-0.000353212747253
1506520884058780792,341090,1506520884058780792,,0.092499229304,-0.012613825641,0.760461585348,-8.13992673993e-05,0.000910491355311,-0.000353212747253
1506520884059779136,341091,1506520884059779136,,0.092499229304,-0.012613825641,0.760461585348,-8.13992673993e-05,0.000910491355311,-0.000353212747253
1506520884060796112,341092,1506520884060796112,,0.092499229304,-0.012613825641,0.760461585348,-8.13992673993e-05,0.000910491355311,-0.000353212747253
1506520884061754189,341093,1506520884061754189,,0.092499229304,-0.012613825641,0.760461585348,-8.13992673993e-05,0.000910491355311,-0.000353212747253
1506520884062781039,341094,1506520884062781039,,0.0925003252747,-0.0134891076923,0.819477315751,-0.000104969010989,0.00289655838828,-0.000321506080586
1506520884063779043,341095,1506520884063779043,,0.0950872644689,-0.0142243545788,0.701935704029,-0.00179934432234,0.00185765142857,-0.000448044395604
1506520884064780995,341096,1506520884064780995,,0.0925003252747,-0.0134891076923,0.819477315751,-0.000104969010989,0.00289655838828,-0.000321506080586
1506520884065781748,341097,1506520884065781748,,0.0925003252747,-0.0134891076923,0.819477315751,-0.000104969010989,0.00289655838828,-0.000321506080586
1506520884066778825,341098,1506520884066778825,,0.09256523663,-0.0496483692308,0.759862388278,-0.000516825274725,0.000889321538462,0.000687385274725
1506520884067784465,341099,1506520884067784465,,0.0925663326007,-0.0505236512821,0.818878118681,-0.000540395018315,0.00287538857143,0.000719091941392
1506520884068779127,341100,1506520884068779127,,0.092499229304,-0.012613825641,0.760461585348,-8.13992673993e-05,0.000910491355311,-0.000353212747253
1506520884069778712,341101,1506520884069778712,,0.0925003252747,-0.0134891076923,0.819477315751,-0.000104969010989,0.00289655838828,-0.000321506080586
1506520884070799397,341102,1506520884070799397,,0.060587352381,-0.0314113172161,0.759988923077,-0.000300930989011,0.00128678725275,0.00170846249084
1506520884071754837,341103,1506520884071754837,,0.09256523663,-0.0496483692308,0.759862388278,-0.000516825274725,0.000889321538462,0.000687385274725
1506520884072781251,341104,1506520884072781251,,0.09256523663,-0.0496483692308,0.759862388278,-0.000516825274725,0.000889321538462,0.000687385274725
1506520884073779046,341105,1506520884073779046,,0.092499229304,-0.012613825641,0.760461585348,-8.13992673993e-05,0.000910491355311,-0.000353212747253
1506520884074780908,341106,1506520884074780908,,0.0925003252747,-0.0134891076923,0.819477315751,-0.000104969010989,0.00289655838828,-0.000321506080586
1506520884075778957,341107,1506520884075778957,,0.09256523663,-0.0496483692308,0.759862388278,-0.000516825274725,0.000889321538462,0.000687385274725
1506520884076779659,341108,1506520884076779659,,0.09256523663,-0.0496483692308,0.759862388278,-0.000516825274725,0.000889321538462,0.000687385274725
1506520884077781623,341109,1506520884077781623,,0.092499229304,-0.012613825641,0.760461585348,-8.13992673993e-05,0.000910491355311,-0.000353212747253
1506520884078782687,341110,1506520884078782687,,0.0925003252747,-0.0134891076923,0.819477315751,-0.000104969010989,0.00289655838828,-0.000321506080586
1506520884079778979,341111,1506520884079778979,,0.0925003252747,-0.0134891076923,0.819477315751,-0.000104969010989,0.00289655838828,-0.000321506080586
1506520884080804217,341112,1506520884080804217,,0.0925663326007,-0.0505236512821,0.818878118681,-0.000540395018315,0.00287538857143,0.000719091941392
1506520884081758316,341113,1506520884081758316,,0.092499229304,-0.012613825641,0.760461585348,-8.13992673993e-05,0.000910491355311,-0.000353212747253
1506520884082779511,341114,1506520884082779511,,0.0925663326007,-0.0505236512821,0.818878118681,-0.000540395018315,0.00287538857143,0.000719091941392
1506520884083780410,341115,1506520884083780410,,0.092499229304,-0.012613825641,0.760461585348,-8.13992673993e-05,0.000910491355311,-0.000353212747253
1506520884084782632,341116,1506520884084782632,,0.0605213450549,0.00562322637363,0.760588120147,0.000134495018315,0.0013079570696,0.000667864468864
1506520884085780124,341117,1506520884085780124,,0.0925003252747,-0.0134891076923,0.819477315751,-0.000104969010989,0.00289655838828,-0.000321506080586
1506520884086780528,341118,1506520884086780528,,0.09256523663,-0.0496483692308,0.759862388278,-0.000516825274725,0.000889321538462,0.000687385274725
1506520884087781136,341119,1506520884087781136,,0.092499229304,-0.012613825641,0.760461585348,-8.13992673993e-05,0.000910491355311,-0.000353212747253
1506520884088780341,341120,1506520884088780341,,0.09256523663,-0.0496483692308,0.759862388278,-0.000516825274725,0.000889321538462,0.000687385274725
1506520884089781144,341121,1506520884089781144,,0.0925003252747,-0.0134891076923,0.819477315751,-0.000104969010989,0.00289655838828,-0.000321506080586
1506520884090804760,341122,1506520884090804760,,0.0925003252747,-0.0134891076923,0.819477315751,-0.000104969010989,0.00289655838828,-0.000321506080586
1506520884091753771,341123,1506520884091753771,,0.092499229304,-0.012613825641,0.760461585348,-8.13992673993e-05,0.000910491355311,-0.000353212747253
1506520884092778235,341124,1506520884092778235,,0.092499229304,-0.012613825641,0.760461585348,-8.13992673993e-05,0.000910491355311,-0.000353212747253
1506520884093781253,341125,1506520884093781253,,0.092499229304,-0.012613825641,0.760461585348,-8.13992673993e-05,0.000910491355311,-0.000353212747253
1506520884094780592,341126,1506520884094780592,,0.0925663326007,-0.0505236512821,0.818878118681,-0.000540395018315,0.00287538857143,0.000719091941392
1506520884095780921,341127,1506520884095780921,,0.092499229304,-0.012613825641,0.760461585348,-8.13992673993e-05,0.000910491355311,-0.000353212747253
1506520884096759071,341128,1506520884096759071,,0.0925003252747,-0.0134891076923,0.819477315751,-0.000104969010989,0.00289655838828,-0.000321506080586
1506520884097771908,341129,1506520884097771908,,0.092499229304,-0.012613825641,0.760461585348,-8.13992673993e-05,0.000910491355311,-0.000353212747253
1506520884098782638,341130,1506520884098782638,,0.092499229304,-0.012613825641,0.760461585348,-8.13992673993e-05,0.000910491355311,-0.000353212747253
1506520884099766086,341131,1506520884099766086,,0.0925003252747,-0.0134891076923,0.819477315751,-0.000104969010989,0.00289655838828,-0.000321506080586
1506520884100803802,341132,1506520884100803802,,0.0925003252747,-0.0134891076923,0.819477315751,-0.000104969010989,0.00289655838828,-0.000321506080586
1506520884101756422,341133,1506520884101756422,,0.092499229304,-0.012613825641,0.760461585348,-8.13992673993e-05,0.000910491355311,-0.000353212747253
1506520884102778906,341134,1506520884102778906,,0.0925663326007,-0.0505236512821,0.818878118681,-0.000540395018315,0.00287538857143,0.000719091941392
1506520884103779419,341135,1506520884103779419,,0.092499229304,-0.012613825641,0.760461585348,-8.13992673993e-05,0.000910491355311,-0.000353212747253
1506520884104781506,341136,1506520884104781506,,0.092499229304,-0.012613825641,0.760461585348,-8.13992673993e-05,0.000910491355311,-0.000353212747253
1506520884105781818,341137,1506520884105781818,,0.092499229304,-0.012613825641,0.760461585348,-8.13992673993e-05,0.000910491355311,-0.000353212747253
1506520884106782054,341138,1506520884106782054,,0.0925003252747,-0.0134891076923,0.819477315751,-0.000104969010989,0.00289655838828,-0.000321506080586
1506520884107771904,341139,1506520884107771904,,0.0605213450549,0.00562322637363,0.760588120147,0.000134495018315,0.0013079570696,0.000667864468864
1506520884108781345,341140,1506520884108781345,,0.09256523663,-0.0496483692308,0.759862388278,-0.000516825274725,0.000889321538462,0.000687385274725
1506520884109764553,341141,1506520884109764553,,0.092499229304,-0.012613825641,0.760461585348,-8.13992673993e-05,0.000910491355311,-0.000353212747253
1506520884110803994,341142,1506520884110803994,,0.092499229304,-0.012613825641,0.760461585348,-8.13992673993e-05,0.000910491355311,-0.000353212747253
1506520884111781469,341143,1506520884111781469,,0.0925003252747,-0.0134891076923,0.819477315751,-0.000104969010989,0.00289655838828,-0.000321506080586
1506520884112780709,341144,1506520884112780709,,0.0925003252747,-0.0134891076923,0.819477315751,-0.000104969010989,0.00289655838828,-0.000321506080586
1506520884113781647,341145,1506520884113781647,,0.0925003252747,-0.0134891076923,0.819477315751,-0.000104969010989,0.00289655838828,-0.000321506080586
1506520884114779661,341146,1506520884114779661,,0.0925003252747,-0.0134891076923,0.819477315751,-0.000104969010989,0.00289655838828,-0.000321506080586
1506520884115780959,341147,1506520884115780959,,0.0925003252747,-0.0134891076923,0.819477315751,-0.000104969010989,0.00289655838828,-0.000321506080586
1506520884116781619,341148,1506520884116781619,,0.0925003252747,-0.0134891076923,0.819477315751,-0.000104969010989,0.00289655838828,-0.000321506080586
1506520884117774313,341149,1506520884117774313,,0.0925003252747,-0.0134891076923,0.819477315751,-0.000104969010989,0.00289655838828,-0.000321506080586
1506520884118781782,341150,1506520884118781782,,0.0925003252747,-0.0134891076923,0.819477315751,-0.000104969010989,0.00289655838828,-0.000321506080586
1506520884119770001,341151,1506520884119770001,,0.0925663326007,-0.0505236512821,0.818878118681,-0.000540395018315,0.00287538857143,0.000719091941392
1506520884120804533,341152,1506520884120804533,,0.09256523663,-0.0496483692308,0.759862388278,-0.000516825274725,0.000889321538462,0.000687385274725
1506520884121782179,341153,1506520884121782179,,0.092499229304,-0.012613825641,0.760461585348,-8.13992673993e-05,0.000910491355311,-0.000353212747253
1506520884122792813,341154,1506520884122792813,,0.0925003252747,-0.0134891076923,0.819477315751,-0.000104969010989,0.00289655838828,-0.000321506080586
1506520884123747386,341155,1506520884123747386,,0.0925003252747,-0.0134891076923,0.819477315751,-0.000104969010989,0.00289655838828,-0.000321506080586
1506520884124758504,341156,1506520884124758504,,0.092499229304,-0.012613825641,0.760461585348,-8.13992673993e-05,0.000910491355311,-0.000353212747253
1506520884125779579,341157,1506520884125779579,,0.0925003252747,-0.0134891076923,0.819477315751,-0.000104969010989,0.00289655838828,-0.000321506080586
1506520884126778711,341158,1506520884126778711,,0.092499229304,-0.012613825641,0.760461585348,-8.13992673993e-05,0.000910491355311,-0.000353212747253
